[{"latitude":"57.153791","longitude":"-2.106804","name":"Aberdeen, United Kingdom","id":"aberdeen-united-kingdom","city_id":3537},{"latitude":"5.323542","longitude":"-4.026237","name":"Abidjan, Côte d'Ivoire","id":"abidjan-cte-divoire","city_id":3316},{"latitude":"24.443748","longitude":"54.418901","name":"Abu Dhabi, United Arab Emirates","id":"abu-dhabi-united-arab-emirates","city_id":3858},{"latitude":"31.071870","longitude":"29.702507","name":"Abu Talat, Egypt","id":"abu-talat-egypt","city_id":9485},{"latitude":"5.558308","longitude":"-0.201092","name":"Accra, Ghana","id":"accra-ghana","city_id":4181},{"latitude":"56.019416","longitude":"-5.365787","name":"Achnaba, United Kingdom","id":"achnaba-united-kingdom","city_id":15840},{"latitude":"12.800687","longitude":"45.033554","name":"Aden, Yemen","id":"aden-yemen","city_id":5969},{"latitude":"59.350470","longitude":"-2.959147","name":"Aikerness , United Kingdom","id":"aikerness-united-kingdom","city_id":15871},{"latitude":"41.919326","longitude":"8.738650","name":"Ajaccio, France","id":"ajaccio-france","city_id":6053},{"latitude":"36.383586","longitude":"140.612220","name":"Ajigaura, Japan","id":"ajigaura-japan","city_id":5884},{"latitude":"32.881732","longitude":"21.741671","name":"Al Baida, Libya","id":"al-baida-libya","city_id":10838},{"latitude":"30.378120","longitude":"19.576535","name":"Al Brega, Libya","id":"al-brega-libya","city_id":7870},{"latitude":"23.576073","longitude":"58.606106","name":"Al Bustan, Oman","id":"al-bustan-oman","city_id":15019},{"latitude":"25.538572","longitude":"51.451911","name":"Al Daayen, Qatar","id":"al-daayen-qatar","city_id":10232},{"latitude":"16.210353","longitude":"52.182379","name":"Al Ghaydah, Yemen","id":"al-ghaydah-yemen","city_id":7679},{"latitude":"26.241599","longitude":"50.656208","name":"Al Hidd, Bahrain","id":"al-hidd-bahrain","city_id":10233},{"latitude":"14.685549","longitude":"43.008555","name":"Al Hudaydah, Yemen","id":"al-hudaydah-yemen","city_id":7681},{"latitude":"26.286130","longitude":"50.214216","name":"Al Khobar, Saudi Arabia","id":"al-khobar-saudi-arabia","city_id":7729},{"latitude":"32.649701","longitude":"14.264428","name":"Al Khoms, Libya","id":"al-khoms-libya","city_id":7866},{"latitude":"29.369917","longitude":"47.976522","name":"Al Safat, Kuwait","id":"al-safat-kuwait","city_id":4294},{"latitude":"23.684666","longitude":"58.176126","name":"Al Seeb, Oman","id":"al-seeb-oman","city_id":7646},{"latitude":"29.923335","longitude":"48.531795","name":"Al-Faw, Iraq","id":"al-faw-iraq","city_id":9596},{"latitude":"25.294333","longitude":"51.519391","name":"Al-Kheesa, Qatar","id":"al-kheesa-qatar","city_id":10682},{"latitude":"52.157895","longitude":"1.590606","name":"Aldeburgh, United Kingdom","id":"aldeburgh-united-kingdom","city_id":3225},{"latitude":"-33.913939","longitude":"151.196199","name":"Alexandria, Australia","id":"alexandria-australia","city_id":6097},{"latitude":"31.191889","longitude":"29.889812","name":"Alexandria, Egypt","id":"alexandria-egypt","city_id":6044},{"latitude":"36.765324","longitude":"3.031816","name":"Algiers, Algeria","id":"algiers-algeria","city_id":4176},{"latitude":"56.074885","longitude":"12.536890","name":"Alsgarde, Denmark","id":"alsgarde-denmark","city_id":10737},{"latitude":"27.999508","longitude":"-15.699962","name":"Alta Vista, Canary Islands, Spain","id":"alta-vista-canary-islands-spain","city_id":10726},{"latitude":"-8.319420","longitude":"118.760375","name":"Ambalawi, Indonesia","id":"ambalawi-indonesia","city_id":14650},{"latitude":"-3.655360","longitude":"128.190741","name":"Ambon, Indonesia","id":"ambon-indonesia","city_id":16571},{"latitude":"26.229001","longitude":"50.575837","name":"Amwaj Island, Bahrain","id":"amwaj-island-bahrain","city_id":10683},{"latitude":"61.217461","longitude":"-149.858345","name":"Anchorage, Alaska, United States","id":"anchorage-alaska-united-states","city_id":4067},{"latitude":"-6.129382","longitude":"106.833330","name":"Ancol, Indonesia","id":"ancol-indonesia","city_id":5860},{"latitude":"57.501838","longitude":"-134.582278","name":"Angoon, Alaska, United States","id":"angoon-alaska-united-states","city_id":8553},{"latitude":"38.658487","longitude":"-27.215825","name":"Angra do Heroismo, Portugal","id":"angra-do-heroismo-portugal","city_id":14836},{"latitude":"36.902336","longitude":"7.755447","name":"Annaba, Algeria","id":"annaba-algeria","city_id":4196},{"latitude":"-13.833675","longitude":"-171.766684","name":"Apia, Samoa","id":"apia-samoa","city_id":5705},{"latitude":"29.531734","longitude":"35.006997","name":"Aqaba, Jordan","id":"aqaba-jordan","city_id":4363},{"latitude":"-10.909653","longitude":"-37.074805","name":"Aracajú, Brazil","id":"aracaj-brazil","city_id":3356},{"latitude":"49.225279","longitude":"-2.021306","name":"Archirondel, Jersey","id":"archirondel-jersey","city_id":10377},{"latitude":"55.858577","longitude":"-5.063590","name":"Ardbeg Point, United Kingdom","id":"ardbeg-point-united-kingdom","city_id":15874},{"latitude":"56.721565","longitude":"-5.233658","name":"Ardgour, United Kingdom","id":"ardgour-united-kingdom","city_id":15876},{"latitude":"57.934064","longitude":"-5.196207","name":"Ardmair, United Kingdom","id":"ardmair-united-kingdom","city_id":15857},{"latitude":"55.476546","longitude":"-5.533414","name":"Ardnacross, United Kingdom","id":"ardnacross-united-kingdom","city_id":15842},{"latitude":"55.693049","longitude":"-4.889371","name":"Ardneil Bay, United Kingdom","id":"ardneil-bay-united-kingdom","city_id":15845},{"latitude":"57.059357","longitude":"-5.906460","name":"Ardvasar, United Kingdom","id":"ardvasar-united-kingdom","city_id":15863},{"latitude":"55.869417","longitude":"-5.019986","name":"Ardyne Point, United Kingdom","id":"ardyne-point-united-kingdom","city_id":15875},{"latitude":"58.461700","longitude":"8.772439","name":"Arendal, Norway","id":"arendal-norway","city_id":6056},{"latitude":"-18.473810","longitude":"-70.306723","name":"Arica, Chile","id":"arica-chile","city_id":5800},{"latitude":"35.470793","longitude":"-6.035757","name":"Asilah, Morocco","id":"asilah-morocco","city_id":5910},{"latitude":"-21.631132","longitude":"-41.027245","name":"Atafona, Brazil","id":"atafona-brazil","city_id":16690},{"latitude":"37.976066","longitude":"23.736299","name":"Athens, Greece","id":"athens-greece","city_id":3211},{"latitude":"-36.884445","longitude":"174.770406","name":"Auckland, New Zealand","id":"auckland-new-zealand","city_id":3319},{"latitude":"-8.766685","longitude":"160.699905","name":"Auki, Solomon Islands","id":"auki-solomon-islands","city_id":10893},{"latitude":"34.983294","longitude":"33.999966","name":"Ayia Napa, Cyprus","id":"ayia-napa-cyprus","city_id":6029},{"latitude":"58.833282","longitude":"-2.900114","name":"Ayre of Caira, United Kingdom","id":"ayre-of-caira-united-kingdom","city_id":8682},{"latitude":"12.414164","longitude":"-69.878696","name":"Baby Beach, Aruba","id":"baby-beach-aruba","city_id":5776},{"latitude":"35.934075","longitude":"14.458764","name":"Bahar ic-Caghaq, Malta","id":"bahar-ic-caghaq-malta","city_id":9028},{"latitude":"-20.474004","longitude":"57.485404","name":"Baie Jacotet, Mauritius","id":"baie-jacotet-mauritius","city_id":5906},{"latitude":"16.028908","longitude":"-61.713953","name":"Baillif, Guadeloupe","id":"baillif-guadeloupe","city_id":8834},{"latitude":"8.950005","longitude":"-79.566679","name":"Balboa, Panama","id":"balboa-panama","city_id":8722},{"latitude":"43.414344","longitude":"28.167449","name":"Balchik, Bulgaria","id":"balchik-bulgaria","city_id":9594},{"latitude":"-8.464439","longitude":"115.596997","name":"Bali, Indonesia","id":"bali-indonesia","city_id":9597},{"latitude":"57.081525","longitude":"-7.312173","name":"Balla, United Kingdom","id":"balla-united-kingdom","city_id":15868},{"latitude":"18.409376","longitude":"121.513987","name":"Ballesteros, Philippines","id":"ballesteros-philippines","city_id":8541},{"latitude":"52.401449","longitude":"-6.364859","name":"Ballinesker, Ireland","id":"ballinesker-ireland","city_id":8407},{"latitude":"35.934075","longitude":"14.380053","name":"Balluta Bay, Malta","id":"balluta-bay-malta","city_id":6170},{"latitude":"52.184067","longitude":"-6.558804","name":"Ballygrangans, Ireland","id":"ballygrangans-ireland","city_id":8406},{"latitude":"54.302035","longitude":"-5.559390","name":"Ballyhornan, United Kingdom","id":"ballyhornan-united-kingdom","city_id":13373},{"latitude":"54.542757","longitude":"-5.484390","name":"Ballywater, United Kingdom","id":"ballywater-united-kingdom","city_id":13371},{"latitude":"18.328224","longitude":"-64.943786","name":"Banana Bay, VI, United States","id":"banana-bay-vi-united-states","city_id":13401},{"latitude":"-4.520203","longitude":"129.872088","name":"Bandaneria, Indonesia","id":"bandaneria-indonesia","city_id":16626},{"latitude":"27.187204","longitude":"56.274369","name":"Bandar Abbas, Iran","id":"bandar-abbas-iran","city_id":8848},{"latitude":"3.009286","longitude":"101.436750","name":"Bandar Bukit Tinggi, Malaysia","id":"bandar-bukit-tinggi-malaysia","city_id":14269},{"latitude":"-5.409265","longitude":"105.254131","name":"Bandar Lampung, Indonesia","id":"bandar-lampung-indonesia","city_id":9727},{"latitude":"43.118544","longitude":"-124.408259","name":"Bandon, Oregon, United States","id":"bandon-oregon-united-states","city_id":3554},{"latitude":"57.666877","longitude":"-2.523650","name":"Banff, United Kingdom","id":"banff-united-kingdom","city_id":8680},{"latitude":"-3.328016","longitude":"114.604029","name":"Banjarmasin, Indonesia","id":"banjarmasin-indonesia","city_id":7803},{"latitude":"13.455960","longitude":"-16.581358","name":"Banjul, Gambia","id":"banjul-gambia","city_id":4348},{"latitude":"42.093056","longitude":"19.100266","name":"Bar, Montenegro","id":"bar-montenegro","city_id":9342},{"latitude":"41.385341","longitude":"2.168536","name":"Barcelona, Spain","id":"barcelona-spain","city_id":3036},{"latitude":"41.125478","longitude":"16.866673","name":"Bari, Italy","id":"bari-italy","city_id":3160},{"latitude":"23.679393","longitude":"58.004349","name":"Barka, Oman","id":"barka-oman","city_id":8947},{"latitude":"10.940434","longitude":"-74.779767","name":"Barranquilla, Colombia","id":"barranquilla-colombia","city_id":4315},{"latitude":"71.290503","longitude":"-156.788615","name":"Barrow, Alaska, United States","id":"barrow-alaska-united-states","city_id":16441},{"latitude":"55.770393","longitude":"12.955445","name":"Barsebäck, Sweden","id":"barsebck-sweden","city_id":8403},{"latitude":"17.298439","longitude":"-62.731238","name":"Basseterre, Saint Kitts and Nevis","id":"basseterre-saint-kitts-and-nevis","city_id":4356},{"latitude":"1.860067","longitude":"9.768239","name":"Bata, Equatorial Guinea","id":"bata-equatorial-guinea","city_id":9434},{"latitude":"1.134677","longitude":"103.962530","name":"Batam, Indonesia","id":"batam-indonesia","city_id":5862},{"latitude":"13.765530","longitude":"121.064963","name":"Batangas, Philippines","id":"batangas-philippines","city_id":3218},{"latitude":"-5.040320","longitude":"103.838995","name":"Baturaja, Indonesia","id":"baturaja-indonesia","city_id":16284},{"latitude":"59.279767","longitude":"-2.939519","name":"Bay of Tuquoy, United Kingdom","id":"bay-of-tuquoy-united-kingdom","city_id":15870},{"latitude":"-8.615611","longitude":"114.097096","name":"Beculuk, Indonesia","id":"beculuk-indonesia","city_id":14611},{"latitude":"33.892474","longitude":"35.485219","name":"Beirut, Lebanon","id":"beirut-lebanon","city_id":3862},{"latitude":"17.495509","longitude":"-88.181617","name":"Belize City, Belize","id":"belize-city-belize","city_id":5791},{"latitude":"40.755557","longitude":"-72.937825","name":"Bellport, New York, United States","id":"bellport-new-york-united-states","city_id":5767},{"latitude":"32.116596","longitude":"20.066769","name":"Benghazi, Libya","id":"benghazi-libya","city_id":7871},{"latitude":"-12.580063","longitude":"13.407788","name":"Benguela, Angola","id":"benguela-angola","city_id":11506},{"latitude":"10.435063","longitude":"45.010898","name":"Berbera, Somalia","id":"berbera-somalia","city_id":10093},{"latitude":"52.486313","longitude":"4.656913","name":"Beverwijk, Netherlands","id":"beverwijk-netherlands","city_id":3080},{"latitude":"-1.163466","longitude":"136.053237","name":"Biak, Indonesia","id":"biak-indonesia","city_id":16629},{"latitude":"43.268348","longitude":"-2.946159","name":"Bilbao, Spain","id":"bilbao-spain","city_id":3067},{"latitude":"3.196981","longitude":"113.068385","name":"Bintulu, Malaysia","id":"bintulu-malaysia","city_id":7811},{"latitude":"37.276359","longitude":"9.867360","name":"Bizerte, Tunisia","id":"bizerte-tunisia","city_id":5958},{"latitude":"55.751546","longitude":"8.328982","name":"Blaabjerg, Denmark","id":"blaabjerg-denmark","city_id":5818},{"latitude":"50.318833","longitude":"-3.610905","name":"Blackpool Sands, United Kingdom","id":"blackpool-sands-united-kingdom","city_id":14677},{"latitude":"53.808675","longitude":"-3.050749","name":"Blackpool, United Kingdom","id":"blackpool-united-kingdom","city_id":8408},{"latitude":"55.501936","longitude":"-5.332096","name":"Blackwaterfoot, United Kingdom","id":"blackwaterfoot-united-kingdom","city_id":15841},{"latitude":"11.991801","longitude":"-83.771462","name":"Bluefields, Nicaragua","id":"bluefields-nicaragua","city_id":5920},{"latitude":"-40.950850","longitude":"145.623741","name":"Boat Harbour, Tasmania, Australia","id":"boat-harbour-tasmania-australia","city_id":7813},{"latitude":"26.350290","longitude":"-80.088945","name":"Boca Raton, Florida, United States","id":"boca-raton-florida-united-states","city_id":3563},{"latitude":"11.275590","longitude":"49.187947","name":"Bosaso, Somalia","id":"bosaso-somalia","city_id":16373},{"latitude":"58.209064","longitude":"-6.310757","name":"Branahuie Bay, United Kingdom","id":"branahuie-bay-united-kingdom","city_id":15858},{"latitude":"-3.079969","longitude":"106.547490","name":"Bratu Prahu, Indonesia","id":"bratu-prahu-indonesia","city_id":16015},{"latitude":"51.293735","longitude":"-3.010905","name":"Brean, United Kingdom","id":"brean-united-kingdom","city_id":5736},{"latitude":"51.246372","longitude":"2.961895","name":"Bredene, Belgium","id":"bredene-belgium","city_id":8396},{"latitude":"68.735035","longitude":"16.553197","name":"Breivika, Norway","id":"breivika-norway","city_id":9671},{"latitude":"18.342384","longitude":"-64.975329","name":"Brewer's Bay, VI, United States","id":"brewers-bay-vi-united-states","city_id":13398},{"latitude":"13.098929","longitude":"-59.613368","name":"Bridgetown, Barbados","id":"bridgetown-barbados","city_id":4202},{"latitude":"51.358872","longitude":"1.439434","name":"Broadstairs, United Kingdom","id":"broadstairs-united-kingdom","city_id":6033},{"latitude":"55.647249","longitude":"12.414917","name":"Brondby, Denmark","id":"brondby-denmark","city_id":11045},{"latitude":"40.773135","longitude":"-72.912288","name":"Brookhaven, New York, United States","id":"brookhaven-new-york-united-states","city_id":4512},{"latitude":"-33.761205","longitude":"151.273933","name":"Brookvale, Australia","id":"brookvale-australia","city_id":5781},{"latitude":"50.828110","longitude":"-4.544401","name":"Bude, United Kingdom","id":"bude-united-kingdom","city_id":4554},{"latitude":"3.883699","longitude":"-77.040313","name":"Buenaventura, Colombia","id":"buenaventura-colombia","city_id":5806},{"latitude":"17.949708","longitude":"-76.666681","name":"Bull Bay, Jamaica","id":"bull-bay-jamaica","city_id":7689},{"latitude":"55.556819","longitude":"12.918726","name":"Bunkeflostand, Sweden","id":"bunkeflostand-sweden","city_id":8401},{"latitude":"28.970015","longitude":"50.842731","name":"Bushehr, Iran","id":"bushehr-iran","city_id":9683},{"latitude":"8.947564","longitude":"125.540645","name":"Butuan City, Philippines","id":"butuan-city-philippines","city_id":16053},{"latitude":"-5.556628","longitude":"12.189820","name":"Cabinda, Angola","id":"cabinda-angola","city_id":10857},{"latitude":"-52.658852","longitude":"-68.605796","name":"Cabo Espiritu Santo, Argentina","id":"cabo-espiritu-santo-argentina","city_id":16514},{"latitude":"-8.776646","longitude":"13.372339","name":"Cacuaco, Angola","id":"cacuaco-angola","city_id":5775},{"latitude":"10.950004","longitude":"123.300021","name":"Cadiz City, Philippines","id":"cadiz-city-philippines","city_id":16050},{"latitude":"8.454205","longitude":"124.631954","name":"Cagayan de Oro, Philippines","id":"cagayan-de-oro-philippines","city_id":10658},{"latitude":"39.215323","longitude":"9.109353","name":"Cagliari, Italy","id":"cagliari-italy","city_id":3162},{"latitude":"50.952915","longitude":"1.852813","name":"Calais, France","id":"calais-france","city_id":4490},{"latitude":"12.069926","longitude":"124.600313","name":"Calbayog, Philippines","id":"calbayog-philippines","city_id":9384},{"latitude":"56.582112","longitude":"-6.272378","name":"Calgary, United Kingdom","id":"calgary-united-kingdom","city_id":15866},{"latitude":"10.606157","longitude":"-66.878306","name":"Camuri, Venezuela","id":"camuri-venezuela","city_id":5966},{"latitude":"21.095703","longitude":"-86.767555","name":"Cancún, Mexico","id":"cancn-mexico","city_id":3842},{"latitude":"28.355563","longitude":"-16.371739","name":"Candelaria, Canary Islands, Spain","id":"candelaria-canary-islands-spain","city_id":7775},{"latitude":"15.303323","longitude":"-61.384852","name":"Canefield, Dominica","id":"canefield-dominica","city_id":8835},{"latitude":"43.552919","longitude":"7.017361","name":"Cannes, France","id":"cannes-france","city_id":6279},{"latitude":"-43.494208","longitude":"171.707322","name":"Canterbury, New Zealand","id":"canterbury-new-zealand","city_id":7855},{"latitude":"22.208007","longitude":"114.260279","name":"Cape D'Aguilar, China","id":"cape-daguilar-china","city_id":6007},{"latitude":"-33.919212","longitude":"18.421946","name":"Cape Town, South Africa","id":"cape-town-south-africa","city_id":3921},{"latitude":"38.690128","longitude":"-9.331557","name":"Carcavelos, Portugal","id":"carcavelos-portugal","city_id":5936},{"latitude":"54.713655","longitude":"-5.808170","name":"Carrickfergus, United Kingdom","id":"carrickfergus-united-kingdom","city_id":13377},{"latitude":"10.386723","longitude":"-75.505695","name":"Cartagena, Colombia","id":"cartagena-colombia","city_id":5693},{"latitude":"13.994241","longitude":"-61.006825","name":"Castries, Saint Lucia","id":"castries-saint-lucia","city_id":4207},{"latitude":"24.403318","longitude":"-75.525910","name":"Cat Island, Bahamas","id":"cat-island-bahamas","city_id":5784},{"latitude":"37.511613","longitude":"15.067455","name":"Catania, Italy","id":"catania-italy","city_id":3214},{"latitude":"25.068455","longitude":"-77.453008","name":"Caves Point, Bahamas","id":"caves-point-bahamas","city_id":5786},{"latitude":"14.286233","longitude":"120.820139","name":"Cavite, Philippines","id":"cavite-philippines","city_id":5931},{"latitude":"4.941316","longitude":"-52.321087","name":"Cayenne, French Guiana","id":"cayenne-french-guiana","city_id":5575},{"latitude":"50.178794","longitude":"1.493438","name":"Cayeux-sur-Mer, France","id":"cayeux-sur-mer-france","city_id":6051},{"latitude":"19.690332","longitude":"-79.877665","name":"Cayman Brac, Cayman Islands","id":"cayman-brac-cayman-islands","city_id":6048},{"latitude":"10.310063","longitude":"123.894649","name":"Cebu, Philippines","id":"cebu-philippines","city_id":3901},{"latitude":"25.298240","longitude":"60.629641","name":"Chabahar, Iran","id":"chabahar-iran","city_id":8849},{"latitude":"10.686137","longitude":"-61.650819","name":"Chaguaramas, Trinidad and Tobago","id":"chaguaramas-trinidad-and-tobago","city_id":8838},{"latitude":"1.389071","longitude":"103.987042","name":"Changi North, Singapore","id":"changi-north-singapore","city_id":5940},{"latitude":"1.389071","longitude":"103.987042","name":"Changi South, Singapore","id":"changi-south-singapore","city_id":5937},{"latitude":"35.511809","longitude":"24.012178","name":"Chania, Greece","id":"chania-greece","city_id":5723},{"latitude":"41.411904","longitude":"-71.645882","name":"Charlestown, Rhode Island, United States","id":"charlestown-rhode-island-united-states","city_id":3580},{"latitude":"13.063480","longitude":"80.243108","name":"Chennai, India","id":"chennai-india","city_id":4191},{"latitude":"4.130183","longitude":"103.393683","name":"Cherating, Malaysia","id":"cherating-malaysia","city_id":6011},{"latitude":"34.976653","longitude":"139.954603","name":"Chikura, Japan","id":"chikura-japan","city_id":5885},{"latitude":"-11.923520","longitude":"43.489121","name":"Chindini, Comoros","id":"chindini-comoros","city_id":14840},{"latitude":"36.731340","longitude":"-6.428872","name":"Chipiona, Spain","id":"chipiona-spain","city_id":7777},{"latitude":"31.619916","longitude":"121.395237","name":"Chongming, China","id":"chongming-china","city_id":5802},{"latitude":"17.746681","longitude":"-64.703161","name":"Christiansted, VI, United States","id":"christiansted-vi-united-states","city_id":13396},{"latitude":"22.222069","longitude":"114.203053","name":"Chung Hom Kok, Hong Kong","id":"chung-hom-kok-hong-kong","city_id":5856},{"latitude":"42.091103","longitude":"11.796851","name":"Civitavecchia, Italy","id":"civitavecchia-italy","city_id":7751},{"latitude":"60.749883","longitude":"-2.399919","name":"Clair, United Kingdom","id":"clair-united-kingdom","city_id":10354},{"latitude":"23.098338","longitude":"-74.966193","name":"Clarence Town, Bahamas","id":"clarence-town-bahamas","city_id":10360},{"latitude":"53.410043","longitude":"-6.197915","name":"Clonshaugh, Ireland","id":"clonshaugh-ireland","city_id":10313},{"latitude":"9.938091","longitude":"76.269575","name":"Cochin, India","id":"cochin-india","city_id":4322},{"latitude":"24.052537","longitude":"-74.530256","name":"Cockburn Town, Bahamas","id":"cockburn-town-bahamas","city_id":10364},{"latitude":"57.073615","longitude":"-7.302212","name":"Coilleag, United Kingdom","id":"coilleag-united-kingdom","city_id":15873},{"latitude":"55.130745","longitude":"-6.676187","name":"Coleraine, United Kingdom","id":"coleraine-united-kingdom","city_id":9038},{"latitude":"6.926764","longitude":"79.872014","name":"Colombo, Sri Lanka","id":"colombo-sri-lanka","city_id":3887},{"latitude":"9.353716","longitude":"-79.900029","name":"Colón, Panama","id":"coln-panama","city_id":6093},{"latitude":"9.513579","longitude":"-13.703820","name":"Conakry, Guinea","id":"conakry-guinea","city_id":4208},{"latitude":"18.459864","longitude":"-66.077965","name":"Condado Beach, PR, United States","id":"condado-beach-pr-united-states","city_id":6084},{"latitude":"36.276555","longitude":"-6.087222","name":"Conil, Spain","id":"conil-spain","city_id":5944},{"latitude":"39.619327","longitude":"19.919504","name":"Corfu, Greece","id":"corfu-greece","city_id":6024},{"latitude":"51.898325","longitude":"-8.472768","name":"Cork, Ireland","id":"cork-ireland","city_id":3522},{"latitude":"12.004984","longitude":"120.200706","name":"Coron, Philippines","id":"coron-philippines","city_id":9385},{"latitude":"56.722541","longitude":"-5.245377","name":"Corran, United Kingdom","id":"corran-united-kingdom","city_id":15856},{"latitude":"55.643635","longitude":"-5.141422","name":"Corrie, United Kingdom","id":"corrie-united-kingdom","city_id":15844},{"latitude":"39.671963","longitude":"-31.110550","name":"Corvo, Portugal","id":"corvo-portugal","city_id":14657},{"latitude":"6.356550","longitude":"2.439922","name":"Cotonou, Benin","id":"cotonou-benin","city_id":3315},{"latitude":"21.429199","longitude":"91.994958","name":"Cox’s Bazar, Bangladesh","id":"coxs-bazar-bangladesh","city_id":6299},{"latitude":"55.833674","longitude":"-5.953824","name":"Craighouse, United Kingdom","id":"craighouse-united-kingdom","city_id":15850},{"latitude":"22.629686","longitude":"-74.195002","name":"Crooked Island, Bahamas","id":"crooked-island-bahamas","city_id":5782},{"latitude":"26.912497","longitude":"-77.821954","name":"Crown Haven, Bahamas","id":"crown-haven-bahamas","city_id":8355},{"latitude":"25.407810","longitude":"-76.787677","name":"Current, Bahamas","id":"current-bahamas","city_id":5787},{"latitude":"24.556736","longitude":"118.301000","name":"Dadeng Island, China","id":"dadeng-island-china","city_id":10368},{"latitude":"14.116604","longitude":"122.949923","name":"Daet, Philippines","id":"daet-philippines","city_id":10355},{"latitude":"14.686624","longitude":"-17.451914","name":"Dakar, Senegal","id":"dakar-senegal","city_id":4180},{"latitude":"16.051564","longitude":"108.214774","name":"Danang, Vietnam","id":"danang-vietnam","city_id":5986},{"latitude":"-6.823229","longitude":"39.269690","name":"Dar Es Salaam, Tanzania","id":"dar-es-salaam-tanzania","city_id":4182},{"latitude":"32.763568","longitude":"22.639229","name":"Darnah, Libya","id":"darnah-libya","city_id":7873},{"latitude":"50.351743","longitude":"-3.578385","name":"Dartmouth, United Kingdom","id":"dartmouth-united-kingdom","city_id":10381},{"latitude":"-12.467465","longitude":"130.843181","name":"Darwin, Australia","id":"darwin-australia","city_id":7685},{"latitude":"25.152634","longitude":"52.865972","name":"Das Island, United Arab Emirates","id":"das-island-united-arab-emirates","city_id":6020},{"latitude":"7.079987","longitude":"125.612813","name":"Davao, Philippines","id":"davao-philippines","city_id":3902},{"latitude":"22.249413","longitude":"114.184010","name":"Deep Water Bay, Hong Kong","id":"deep-water-bay-hong-kong","city_id":5853},{"latitude":"53.201742","longitude":"-3.027556","name":"Deeside Clwyd, United Kingdom","id":"deeside-clwyd-united-kingdom","city_id":10338},{"latitude":"3.608113","longitude":"72.955611","name":"Dhangethi, Maldives","id":"dhangethi-maldives","city_id":10813},{"latitude":"25.616990","longitude":"56.258061","name":"Diba, Oman","id":"diba-oman","city_id":10579},{"latitude":"-7.333385","longitude":"72.416647","name":"Diego Garcia, British Indian Ocean Territory","id":"diego-garcia-british-indian-ocean-territory","city_id":5706},{"latitude":"11.594633","longitude":"43.148008","name":"Djibouti City, Djibouti","id":"djibouti-city-djibouti","city_id":4177},{"latitude":"25.294333","longitude":"51.519391","name":"Doha, Qatar","id":"doha-qatar","city_id":3867},{"latitude":"51.563950","longitude":"3.496172","name":"Domburg, Netherlands","id":"domburg-netherlands","city_id":3144},{"latitude":"54.642855","longitude":"-5.538785","name":"Donaghadee, United Kingdom","id":"donaghadee-united-kingdom","city_id":7732},{"latitude":"4.047176","longitude":"9.706325","name":"Douala, Cameroon","id":"douala-cameroon","city_id":4210},{"latitude":"54.150277","longitude":"-4.480875","name":"Douglas, Isle of Man","id":"douglas-isle-of-man","city_id":3171},{"latitude":"51.125571","longitude":"1.317560","name":"Dover, United Kingdom","id":"dover-united-kingdom","city_id":6086},{"latitude":"55.780159","longitude":"-4.900455","name":"Down Craig, United Kingdom","id":"down-craig-united-kingdom","city_id":15843},{"latitude":"55.593538","longitude":"12.670191","name":"Dragor, Denmark","id":"dragor-denmark","city_id":8400},{"latitude":"56.455842","longitude":"-5.669351","name":"Duart Bay, United Kingdom","id":"duart-bay-united-kingdom","city_id":15854},{"latitude":"25.269334","longitude":"55.308452","name":"Dubai, United Arab Emirates","id":"dubai-united-arab-emirates","city_id":3270},{"latitude":"53.348031","longitude":"-6.248257","name":"Dublin, Ireland","id":"dublin-ireland","city_id":3077},{"latitude":"42.641884","longitude":"18.106419","name":"Dubrovnik, Croatia","id":"dubrovnik-croatia","city_id":6043},{"latitude":"9.295611","longitude":"123.281466","name":"Dumaguete, Philippines","id":"dumaguete-philippines","city_id":7842},{"latitude":"1.665634","longitude":"101.447590","name":"Dumai, Indonesia","id":"dumai-indonesia","city_id":7311},{"latitude":"51.358579","longitude":"1.439337","name":"Dumpton Gap, United Kingdom","id":"dumpton-gap-united-kingdom","city_id":8397},{"latitude":"22.183300","longitude":"-75.733478","name":"Duncan Town, Bahamas","id":"duncan-town-bahamas","city_id":10361},{"latitude":"58.615314","longitude":"-3.346208","name":"Dunnet Bay, United Kingdom","id":"dunnet-bay-united-kingdom","city_id":5746},{"latitude":"58.670294","longitude":"-3.376579","name":"Dunnet Head, United Kingdom","id":"dunnet-head-united-kingdom","city_id":16020},{"latitude":"57.436310","longitude":"-6.581655","name":"Dunvegan, United Kingdom","id":"dunvegan-united-kingdom","city_id":15861},{"latitude":"41.316689","longitude":"19.450070","name":"Durres, Albania","id":"durres-albania","city_id":6025},{"latitude":"52.616391","longitude":"4.616386","name":"Egmond, Netherlands","id":"egmond-netherlands","city_id":8409},{"latitude":"26.539645","longitude":"-78.802861","name":"Eight-Mile Rock, Bahamas","id":"eight-mile-rock-bahamas","city_id":5783},{"latitude":"36.800187","longitude":"2.901445","name":"El Djamila, Algeria","id":"el-djamila-algeria","city_id":5774},{"latitude":"27.959371","longitude":"-15.398741","name":"El Goro, Canary Islands, Spain","id":"el-goro-canary-islands-spain","city_id":5720},{"latitude":"28.046676","longitude":"-16.538584","name":"El Médano, Canary Islands, Spain","id":"el-mdano-canary-islands-spain","city_id":5722},{"latitude":"31.760834","longitude":"25.087372","name":"El-Quawef, Libya","id":"el-quawef-libya","city_id":14647},{"latitude":"-9.480259","longitude":"147.156357","name":"Ela Beach, Papua New Guinea","id":"ela-beach-papua-new-guinea","city_id":8350},{"latitude":"35.062395","longitude":"140.061048","name":"Emi, Japan","id":"emi-japan","city_id":5894},{"latitude":"-8.855357","longitude":"121.651584","name":"Ende, Indonesia","id":"ende-indonesia","city_id":14648},{"latitude":"36.427141","longitude":"-5.145865","name":"Estepona, Spain","id":"estepona-spain","city_id":5943},{"latitude":"5.103230","longitude":"73.070846","name":"Eydhafushi, Maldives","id":"eydhafushi-maldives","city_id":10812},{"latitude":"-13.849203","longitude":"-171.740073","name":"Fagali'i, Samoa","id":"fagalii-samoa","city_id":16521},{"latitude":"38.525089","longitude":"-28.647563","name":"Faial, Portugal","id":"faial-portugal","city_id":14659},{"latitude":"-3.097743","longitude":"133.019450","name":"Fakfak, Indonesia","id":"fakfak-indonesia","city_id":16574},{"latitude":"22.249218","longitude":"120.662132","name":"Fangshan, Taiwan","id":"fangshan-taiwan","city_id":5980},{"latitude":"57.862970","longitude":"19.055344","name":"Farosund, Sweden","id":"farosund-sweden","city_id":7412},{"latitude":"58.082794","longitude":"6.752811","name":"Farsund, Norway","id":"farsund-norway","city_id":15386},{"latitude":"55.846760","longitude":"-6.089908","name":"Feolin Ferry, United Kingdom","id":"feolin-ferry-united-kingdom","city_id":15847},{"latitude":"59.949200","longitude":"-154.858831","name":"Fish Camp, Alaska, United States","id":"fish-camp-alaska-united-states","city_id":15031},{"latitude":"18.312794","longitude":"-64.957800","name":"Flamingo Bay, VI, United States","id":"flamingo-bay-vi-united-states","city_id":13400},{"latitude":"43.982118","longitude":"-124.099861","name":"Florence, Oregon, United States","id":"florence-oregon-united-states","city_id":8539},{"latitude":"39.462198","longitude":"-31.128519","name":"Flores, Portugal","id":"flores-portugal","city_id":14656},{"latitude":"-12.288266","longitude":"43.739610","name":"Fomboni Moheli, Comoros","id":"fomboni-moheli-comoros","city_id":14842},{"latitude":"8.934087","longitude":"-79.546757","name":"Fort Amador, Panama","id":"fort-amador-panama","city_id":5925},{"latitude":"17.616505","longitude":"-63.251648","name":"Fort Bay, Bonaire, Sint Eustatius and Saba","id":"fort-bay-bonaire-sint-eustatius-and-saba","city_id":16282},{"latitude":"-3.718836","longitude":"-38.542968","name":"Fortaleza, Brazil","id":"fortaleza-brazil","city_id":3347},{"latitude":"-41.033272","longitude":"146.850107","name":"Four Mile Bluff, Australia","id":"four-mile-bluff-australia","city_id":10796},{"latitude":"17.712404","longitude":"-64.881530","name":"Frederiksted, VI, United States","id":"frederiksted-vi-united-states","city_id":13397},{"latitude":"8.485357","longitude":"-13.238098","name":"Freetown, Sierra Leone","id":"freetown-sierra-leone","city_id":4212},{"latitude":"24.689842","longitude":"-77.844610","name":"Fresh Creek, Bahamas","id":"fresh-creek-bahamas","city_id":10358},{"latitude":"25.121677","longitude":"56.333744","name":"Fujairah, United Arab Emirates","id":"fujairah-united-arab-emirates","city_id":5962},{"latitude":"33.590326","longitude":"130.401678","name":"Fukuoka, Japan","id":"fukuoka-japan","city_id":4059},{"latitude":"32.646869","longitude":"-16.908945","name":"Funchal, Portugal","id":"funchal-portugal","city_id":5935},{"latitude":"62.244121","longitude":"-6.928140","name":"Funningsfjordur, Faeroe Islands","id":"funningsfjordur-faeroe-islands","city_id":5725},{"latitude":"-0.298330","longitude":"73.426900","name":"Fuvahmulah, Maldives","id":"fuvahmulah-maldives","city_id":10817},{"latitude":"26.071091","longitude":"119.303245","name":"Fuzhou, China","id":"fuzhou-china","city_id":8620},{"latitude":"0.288779","longitude":"73.455513","name":"Gahdhoo, Maldives","id":"gahdhoo-maldives","city_id":10815},{"latitude":"1.918466","longitude":"73.544674","name":"Gan, Maldives","id":"gan-maldives","city_id":10814},{"latitude":"56.437776","longitude":"-5.475797","name":"Ganavan Bay, United Kingdom","id":"ganavan-bay-united-kingdom","city_id":15855},{"latitude":"29.570796","longitude":"50.521149","name":"Ganaveh, Iran","id":"ganaveh-iran","city_id":5990},{"latitude":"41.303994","longitude":"2.001348","name":"Gavá, Spain","id":"gav-spain","city_id":7762},{"latitude":"55.012581","longitude":"14.966674","name":"Gedebak Odde, Denmark","id":"gedebak-odde-denmark","city_id":5994},{"latitude":"54.576351","longitude":"11.928980","name":"Gedser, Denmark","id":"gedser-denmark","city_id":5820},{"latitude":"23.516502","longitude":"-75.788019","name":"George Town, Bahamas","id":"george-town-bahamas","city_id":10359},{"latitude":"6.804108","longitude":"-58.154922","name":"Georgetown, Guyana","id":"georgetown-guyana","city_id":3904},{"latitude":"36.155949","longitude":"-5.347672","name":"Gibraltar, Gibraltar","id":"gibraltar-gibraltar","city_id":8948},{"latitude":"35.299114","longitude":"33.236294","name":"Girne, Cyprus","id":"girne-cyprus","city_id":9661},{"latitude":"55.240218","longitude":"-4.854215","name":"Girvan, United Kingdom","id":"girvan-united-kingdom","city_id":13378},{"latitude":"41.210830","longitude":"19.354172","name":"Gjirin e Lalezit, Albania","id":"gjirin-e-lalezit-albania","city_id":10178},{"latitude":"55.565510","longitude":"-5.697574","name":"Glenbarr, United Kingdom","id":"glenbarr-united-kingdom","city_id":15849},{"latitude":"50.024790","longitude":"-5.174527","name":"Goonhilly Downs, United Kingdom","id":"goonhilly-downs-united-kingdom","city_id":3292},{"latitude":"25.196091","longitude":"-76.240655","name":"Governors Harbor, Bahamas","id":"governors-harbor-bahamas","city_id":10357},{"latitude":"39.011026","longitude":"-27.963481","name":"Graciosa, Portugal","id":"graciosa-portugal","city_id":14658},{"latitude":"27.957711","longitude":"-15.596593","name":"Gran Canaria, Canary Islands, Spain","id":"gran-canaria-canary-islands-spain","city_id":5721},{"latitude":"18.024415","longitude":"-63.055066","name":"Great Bay Beach, Saint Martin","id":"great-bay-beach-saint-martin","city_id":16123},{"latitude":"18.322462","longitude":"-64.843200","name":"Great Bay, VI, United States","id":"great-bay-vi-united-states","city_id":13399},{"latitude":"49.247935","longitude":"-2.201433","name":"Greve de Lecq, Jersey","id":"greve-de-lecq-jersey","city_id":10375},{"latitude":"54.166976","longitude":"-4.423893","name":"Groudle Bay, United Kingdom","id":"groudle-bay-united-kingdom","city_id":13374},{"latitude":"35.120598","longitude":"-120.621445","name":"Grover Beach, California, United States","id":"grover-beach-california-united-states","city_id":5748},{"latitude":"24.493943","longitude":"118.188988","name":"Guanyin Mountain, China","id":"guanyin-mountain-china","city_id":10369},{"latitude":"24.476170","longitude":"118.307152","name":"Guningtou, Taiwan","id":"guningtou-taiwan","city_id":10366},{"latitude":"25.132322","longitude":"62.325050","name":"Gwador, Pakistan","id":"gwador-pakistan","city_id":16371},{"latitude":"28.310543","longitude":"-16.412559","name":"Güimar, Canary Islands","id":"gimar-canary-islands","city_id":16017},{"latitude":"32.811420","longitude":"34.998793","name":"Haifa, Israel","id":"haifa-israel","city_id":3905},{"latitude":"18.699024","longitude":"-70.161850","name":"Haina, Dominican Republic","id":"haina-dominican-republic","city_id":10120},{"latitude":"59.235821","longitude":"-135.444973","name":"Haines, Alaska, United States","id":"haines-alaska-united-states","city_id":16207},{"latitude":"19.282911","longitude":"-81.166776","name":"Half Moon Bay, Cayman Islands","id":"half-moon-bay-cayman-islands","city_id":5799},{"latitude":"44.645789","longitude":"-63.573962","name":"Halifax, Nova Scotia, Canada","id":"halifax-nova-scotia-canada","city_id":3640},{"latitude":"25.668552","longitude":"52.420270","name":"Halul Island, Qatar","id":"halul-island-qatar","city_id":6019},{"latitude":"59.823223","longitude":"22.968233","name":"Hangö, Finland","id":"hang-finland","city_id":7694},{"latitude":"60.300957","longitude":"22.302120","name":"Haradsholm, Finland","id":"haradsholm-finland","city_id":9104},{"latitude":"47.886217","longitude":"-122.302206","name":"Harbour Pointe, Washington, United States","id":"harbour-pointe-washington-united-states","city_id":3641},{"latitude":"17.949708","longitude":"-76.716876","name":"Harbour View, Jamaica","id":"harbour-view-jamaica","city_id":9600},{"latitude":"49.450963","longitude":"-2.529509","name":"Havelet Bay, Guernsey","id":"havelet-bay-guernsey","city_id":10376},{"latitude":"58.128107","longitude":"-134.741848","name":"Hawk Inlet, Alaska, United States","id":"hawk-inlet-alaska-united-states","city_id":8552},{"latitude":"26.516892","longitude":"-78.736846","name":"Hawksbill, Bahamas","id":"hawksbill-bahamas","city_id":5785},{"latitude":"56.043831","longitude":"12.695874","name":"Helsingborg, Sweden","id":"helsingborg-sweden","city_id":3268},{"latitude":"60.171075","longitude":"24.932490","name":"Helsingfors, Finland","id":"helsingfors-finland","city_id":9103},{"latitude":"56.030452","longitude":"12.592164","name":"Helsingør, Denmark","id":"helsingr-denmark","city_id":6065},{"latitude":"60.171075","longitude":"24.932490","name":"Helsinki, Finland","id":"helsinki-finland","city_id":3064},{"latitude":"33.862201","longitude":"-118.399571","name":"Hermosa Beach, California, United States","id":"hermosa-beach-california-united-states","city_id":4966},{"latitude":"51.222251","longitude":"-2.975017","name":"Highbridge, United Kingdom","id":"highbridge-united-kingdom","city_id":5745},{"latitude":"45.824792","longitude":"-123.811189","name":"Hillsboro, Oregon, United States","id":"hillsboro-oregon-united-states","city_id":3649},{"latitude":"-0.606045","longitude":"73.089205","name":"Hithadhoo, Maldives","id":"hithadhoo-maldives","city_id":10816},{"latitude":"57.456135","longitude":"9.995583","name":"Hjørring, Denmark","id":"hjrring-denmark","city_id":5821},{"latitude":"26.010251","longitude":"-80.160234","name":"Hollywood, Florida, United States","id":"hollywood-florida-united-states","city_id":3650},{"latitude":"53.306039","longitude":"-4.630387","name":"Holyhead, United Kingdom","id":"holyhead-united-kingdom","city_id":6035},{"latitude":"59.646368","longitude":"-151.544282","name":"Homer, Alaska, United States","id":"homer-alaska-united-states","city_id":8392},{"latitude":"-9.430357","longitude":"159.948343","name":"Honiara, Solomon Islands","id":"honiara-solomon-islands","city_id":10892},{"latitude":"-16.730061","longitude":"-151.000044","name":"Huahine, French Polynesia","id":"huahine-french-polynesia","city_id":14804},{"latitude":"12.616605","longitude":"-70.049985","name":"Hudishibana, Aruba","id":"hudishibana-aruba","city_id":10790},{"latitude":"4.211922","longitude":"73.540181","name":"Hulhumale, Maldives","id":"hulhumale-maldives","city_id":9215},{"latitude":"59.327813","longitude":"-155.894719","name":"Igiugig, Alaska, United States","id":"igiugig-alaska-united-states","city_id":15033},{"latitude":"52.460922","longitude":"4.612773","name":"Ijmuiden, Netherlands","id":"ijmuiden-netherlands","city_id":10414},{"latitude":"-14.787972","longitude":"-39.047704","name":"Ilhéus, Brazil","id":"ilhus-brazil","city_id":4590},{"latitude":"59.754766","longitude":"-154.906096","name":"Illiamna, Alaska, United States","id":"illiamna-alaska-united-states","city_id":15027},{"latitude":"45.423621","longitude":"36.770863","name":"Ilyich, Russia","id":"ilyich-russia","city_id":15111},{"latitude":"-38.633468","longitude":"145.729405","name":"Inverloch, Australia","id":"inverloch-australia","city_id":7860},{"latitude":"43.171180","longitude":"141.315344","name":"Ishikari, Japan","id":"ishikari-japan","city_id":7834},{"latitude":"18.441700","longitude":"-66.016881","name":"Isla Verde, Puerto Rico, United States","id":"isla-verde-puerto-rico-united-states","city_id":5773},{"latitude":"40.600283","longitude":"-73.655940","name":"Island Park, New York, United States","id":"island-park-new-york-united-states","city_id":9763},{"latitude":"41.040615","longitude":"28.986101","name":"Istanbul, Turkey","id":"istanbul-turkey","city_id":3221},{"latitude":"30.331733","longitude":"-81.655741","name":"Jacksonville, Florida, United States","id":"jacksonville-florida-united-states","city_id":3655},{"latitude":"-6.171569","longitude":"106.827861","name":"Jakarta, Indonesia","id":"jakarta-indonesia","city_id":3012},{"latitude":"-1.590029","longitude":"103.609991","name":"Jambi, Indonesia","id":"jambi-indonesia","city_id":9719},{"latitude":"-15.922151","longitude":"-5.704703","name":"Jamestown, Saint Helena, Ascension and Tristan da Cunha","id":"jamestown-saint-helena-ascension-and-tristan-da-cunha","city_id":10722},{"latitude":"16.242971","longitude":"-61.554871","name":"Jarry, Guadeloupe","id":"jarry-guadeloupe","city_id":8836},{"latitude":"25.681247","longitude":"57.797415","name":"Jask, Iran","id":"jask-iran","city_id":6031},{"latitude":"-2.591591","longitude":"140.669056","name":"Jayapura, Indonesia","id":"jayapura-indonesia","city_id":16627},{"latitude":"21.481249","longitude":"39.182776","name":"Jeddah, Saudi Arabia","id":"jeddah-saudi-arabia","city_id":4361},{"latitude":"-8.784068","longitude":"115.159888","name":"Jimbaran, Indonesia","id":"jimbaran-indonesia","city_id":14612},{"latitude":"-7.115319","longitude":"-34.861037","name":"João Pessoa, Brazil","id":"joo-pessoa-brazil","city_id":3351},{"latitude":"58.299494","longitude":"-134.406887","name":"Juneau, Alaska, United States","id":"juneau-alaska-united-states","city_id":4816},{"latitude":"21.354003","longitude":"-158.130558","name":"Kahe Point, Hawaii, United States","id":"kahe-point-hawaii-united-states","city_id":5753},{"latitude":"-3.679383","longitude":"133.791520","name":"Kaimana, Indonesia","id":"kaimana-indonesia","city_id":16633},{"latitude":"18.864551","longitude":"-72.608724","name":"Kaliko, Haiti","id":"kaliko-haiti","city_id":14805},{"latitude":"21.335449","longitude":"-158.056876","name":"Kapolei, HI, United States","id":"kapolei-hi-united-states","city_id":16358},{"latitude":"24.889353","longitude":"67.028563","name":"Karachi, Pakistan","id":"karachi-pakistan","city_id":3259},{"latitude":"1.309286","longitude":"103.904718","name":"Katong, Singapore","id":"katong-singapore","city_id":5939},{"latitude":"57.431037","longitude":"18.845286","name":"Katthammarsvik, Sweden","id":"katthammarsvik-sweden","city_id":10365},{"latitude":"52.205161","longitude":"4.396464","name":"Katwijk, Netherlands","id":"katwijk-netherlands","city_id":3283},{"latitude":"1.378622","longitude":"125.065645","name":"Kauditan, Indonesia","id":"kauditan-indonesia","city_id":16518},{"latitude":"21.093359","longitude":"-157.023869","name":"Kaunakakai, HI, United States","id":"kaunakakai-hi-united-states","city_id":16121},{"latitude":"20.039941","longitude":"-155.831389","name":"Kawaihae, Hawaii, United States","id":"kawaihae-hawaii-united-states","city_id":8973},{"latitude":"-12.817074","longitude":"45.165878","name":"Kaweni, Mayotte","id":"kaweni-mayotte","city_id":10123},{"latitude":"21.425683","longitude":"-158.151700","name":"Keawaula, Hawaii, United States","id":"keawaula-hawaii-united-states","city_id":5754},{"latitude":"36.849308","longitude":"11.089918","name":"Kelibia, Tunisia","id":"kelibia-tunisia","city_id":6015},{"latitude":"60.552910","longitude":"-151.259760","name":"Kenai, Alaska, United States","id":"kenai-alaska-united-states","city_id":8393},{"latitude":"-3.998524","longitude":"122.513010","name":"Kendari, Indonesia","id":"kendari-indonesia","city_id":16570},{"latitude":"34.880657","longitude":"128.620819","name":"Keoje, Korea, Rep.","id":"keoje-korea-rep-","city_id":5975},{"latitude":"45.357019","longitude":"36.477406","name":"Kerch, Ukraine","id":"kerch-ukraine","city_id":15112},{"latitude":"-1.859072","longitude":"109.971902","name":"Ketapang, Indonesia","id":"ketapang-indonesia","city_id":14607},{"latitude":"29.245796","longitude":"50.312067","name":"Khark Island, Iran","id":"khark-island-iran","city_id":10603},{"latitude":"26.181345","longitude":"56.246830","name":"Khasab, Oman","id":"khasab-oman","city_id":7645},{"latitude":"5.255378","longitude":"115.168970","name":"Kiamsam, Malaysia","id":"kiamsam-malaysia","city_id":16695},{"latitude":"20.782129","longitude":"-156.463078","name":"Kihei, Maui, HI, United States","id":"kihei-maui-hi-united-states","city_id":7795},{"latitude":"55.751839","longitude":"-5.028092","name":"Kilchatten Bay, United Kingdom","id":"kilchatten-bay-united-kingdom","city_id":15838},{"latitude":"56.688557","longitude":"-6.093960","name":"Kilchoan Ferry, United Kingdom","id":"kilchoan-ferry-united-kingdom","city_id":15852},{"latitude":"54.206820","longitude":"-9.232191","name":"Killala, Ireland","id":"killala-ireland","city_id":14732},{"latitude":"52.174594","longitude":"-6.584097","name":"Kilmore Quay, Ireland","id":"kilmore-quay-ireland","city_id":5863},{"latitude":"17.992189","longitude":"-76.792169","name":"Kingston, Jamaica","id":"kingston-jamaica","city_id":3272},{"latitude":"13.187894","longitude":"-61.254676","name":"Kingstown, Saint Vincent and the Grenadines","id":"kingstown-saint-vincent-and-the-grenadines","city_id":4219},{"latitude":"33.839251","longitude":"131.032048","name":"Kita-kyushu, Japan","id":"kita-kyushu-japan","city_id":5895},{"latitude":"36.801750","longitude":"140.750891","name":"Kitaibaraki, Japan","id":"kitaibaraki-japan","city_id":5703},{"latitude":"55.533284","longitude":"12.916675","name":"Klagshamn, Sweden","id":"klagshamn-sweden","city_id":14586},{"latitude":"21.339746","longitude":"-158.119474","name":"Ko Olina, HI, United States","id":"ko-olina-hi-united-states","city_id":16118},{"latitude":"57.794123","longitude":"-152.395258","name":"Kodiak, Alaska, United States","id":"kodiak-alaska-united-states","city_id":8394},{"latitude":"59.442169","longitude":"-154.752727","name":"Kokhanok, Alaska, United States","id":"kokhanok-alaska-united-states","city_id":15028},{"latitude":"39.753799","longitude":"19.923996","name":"Kokkini, Greece","id":"kokkini-greece","city_id":7730},{"latitude":"21.277539","longitude":"-157.695988","name":"Koko Head, HI, United States","id":"koko-head-hi-united-states","city_id":16116},{"latitude":"2.776766","longitude":"73.424654","name":"Kolhufushi, Maldives","id":"kolhufushi-maldives","city_id":16506},{"latitude":"54.172347","longitude":"15.574877","name":"Kolobrzeg, Poland","id":"kolobrzeg-poland","city_id":5933},{"latitude":"55.325764","longitude":"11.149391","name":"Korsor, Denmark","id":"korsor-denmark","city_id":13465},{"latitude":"5.981354","longitude":"116.074341","name":"Kota Kinabalu, Malaysia","id":"kota-kinabalu-malaysia","city_id":6009},{"latitude":"60.501055","longitude":"26.883563","name":"Kotka, Finland","id":"kotka-finland","city_id":4552},{"latitude":"66.898318","longitude":"-162.596669","name":"Kotzebue, Alaska, United States","id":"kotzebue-alaska-united-states","city_id":16438},{"latitude":"12.150687","longitude":"-68.276694","name":"Kralendijk, Bonaire, Netherlands","id":"kralendijk-bonaire-netherlands","city_id":14635},{"latitude":"2.932918","longitude":"9.910427","name":"Kribi, Cameroon","id":"kribi-cameroon","city_id":10095},{"latitude":"58.150958","longitude":"7.996267","name":"Kristiansand, Norway","id":"kristiansand-norway","city_id":3131},{"latitude":"56.134748","longitude":"12.588648","name":"Kristinelund, Sweden","id":"kristinelund-sweden","city_id":10739},{"latitude":"21.816698","longitude":"90.116638","name":"Kuakata, Bangladesh","id":"kuakata-bangladesh","city_id":15020},{"latitude":"5.019441","longitude":"100.397102","name":"Kuala Kurau, Malaysia","id":"kuala-kurau-malaysia","city_id":15018},{"latitude":"-0.816494","longitude":"103.466730","name":"Kuala Tungkal, Indonesia","id":"kuala-tungkal-indonesia","city_id":10283},{"latitude":"3.815145","longitude":"103.322589","name":"Kuantan, Malaysia","id":"kuantan-malaysia","city_id":5903},{"latitude":"1.520224","longitude":"110.353738","name":"Kuching, Malaysia","id":"kuching-malaysia","city_id":7808},{"latitude":"6.622467","longitude":"73.071432","name":"Kulhudhufushi, Maldives","id":"kulhudhufushi-maldives","city_id":10811},{"latitude":"57.487482","longitude":"12.076246","name":"Kungsbacka, Sweden","id":"kungsbacka-sweden","city_id":10605},{"latitude":"-10.183286","longitude":"123.583419","name":"Kupang, Indonesia","id":"kupang-indonesia","city_id":14653},{"latitude":"29.374019","longitude":"47.974764","name":"Kuwait City, Kuwait","id":"kuwait-city-kuwait","city_id":3871},{"latitude":"9.189751","longitude":"167.424316","name":"Kwajalein, Republic of Marshall Islands","id":"kwajalein-republic-of-marshall-islands","city_id":7879},{"latitude":"59.000860","longitude":"22.738057","name":"Kärdla, Estonia","id":"krdla-estonia","city_id":5828},{"latitude":"59.279278","longitude":"5.524393","name":"Kårstø, Norway","id":"krst-norway","city_id":5923},{"latitude":"49.503404","longitude":"-2.533464","name":"L'Ancresse Bay, Guernsey","id":"lancresse-bay-guernsey","city_id":10380},{"latitude":"10.603130","longitude":"-66.889635","name":"La Guaira, Venezuela","id":"la-guaira-venezuela","city_id":8352},{"latitude":"43.102919","longitude":"5.878104","name":"La Seyne, France","id":"la-seyne-france","city_id":7766},{"latitude":"16.582619","longitude":"120.389671","name":"La Union, Philippines","id":"la-union-philippines","city_id":10340},{"latitude":"-0.626846","longitude":"127.480488","name":"Labuha, Indonesia","id":"labuha-indonesia","city_id":16636},{"latitude":"6.438874","longitude":"3.423223","name":"Lagos, Nigeria","id":"lagos-nigeria","city_id":3280},{"latitude":"24.455564","longitude":"118.289769","name":"Lake Ci, Taiwan","id":"lake-ci-taiwan","city_id":10367},{"latitude":"63.642167","longitude":"-20.142294","name":"Landeyjar, Iceland","id":"landeyjar-iceland","city_id":8994},{"latitude":"63.733085","longitude":"-20.666756","name":"Landeyjasandur, Iceland","id":"landeyjasandur-iceland","city_id":8544},{"latitude":"48.730260","longitude":"-3.459928","name":"Lannion, France","id":"lannion-france","city_id":5837},{"latitude":"22.271483","longitude":"113.948365","name":"Lantau Island, Hong Kong","id":"lantau-island-hong-kong","city_id":5852},{"latitude":"29.038472","longitude":"-13.650402","name":"Lanzaarote, Canary Islands, Spain","id":"lanzaarote-canary-islands-spain","city_id":7781},{"latitude":"55.793342","longitude":"-4.867301","name":"Largs, United Kingdom","id":"largs-united-kingdom","city_id":15837},{"latitude":"54.857503","longitude":"-5.809879","name":"Larne, United Kingdom","id":"larne-united-kingdom","city_id":11390},{"latitude":"28.377242","longitude":"-16.362364","name":"Las Caletillas, Spain","id":"las-caletillas-spain","city_id":14645},{"latitude":"-36.472532","longitude":"-56.695499","name":"Las Toninas, Argentina","id":"las-toninas-argentina","city_id":3330},{"latitude":"-18.148810","longitude":"178.488764","name":"Laucala Bay, Fiji","id":"laucala-bay-fiji","city_id":16519},{"latitude":"55.636116","longitude":"-6.125406","name":"Lavagulin, United Kingdom","id":"lavagulin-united-kingdom","city_id":15848},{"latitude":"14.615530","longitude":"-61.094276","name":"Le Lamentin, Martinique","id":"le-lamentin-martinique","city_id":5905},{"latitude":"13.139066","longitude":"123.743771","name":"Legazpi City, Philippines","id":"legazpi-city-philippines","city_id":16048},{"latitude":"58.550958","longitude":"-134.747317","name":"Lena Point, Alaska, United States","id":"lena-point-alaska-united-states","city_id":5765},{"latitude":"57.769416","longitude":"-7.008364","name":"Leverburgh, United Kingdom","id":"leverburgh-united-kingdom","city_id":15859},{"latitude":"0.394248","longitude":"9.454372","name":"Libreville, Gabon","id":"libreville-gabon","city_id":4221},{"latitude":"56.508186","longitude":"21.011300","name":"Liepaja, Latvia","id":"liepaja-latvia","city_id":5310},{"latitude":"21.974901","longitude":"-159.368546","name":"Lihue, HI, United States","id":"lihue-hi-united-states","city_id":4822},{"latitude":"4.014558","longitude":"9.208474","name":"Limbe, Cameroon","id":"limbe-cameroon","city_id":9846},{"latitude":"-41.991084","longitude":"-73.504475","name":"Linao, Chile","id":"linao-chile","city_id":16013},{"latitude":"30.935639","longitude":"121.896115","name":"Lingang, China","id":"lingang-china","city_id":16316},{"latitude":"57.603693","longitude":"-7.163345","name":"Lochmaddy, United Kingdom","id":"lochmaddy-united-kingdom","city_id":15860},{"latitude":"59.799883","longitude":"28.499871","name":"Logi, Russia","id":"logi-russia","city_id":9102},{"latitude":"6.125983","longitude":"1.227813","name":"Lome, Togo","id":"lome-togo","city_id":3317},{"latitude":"78.218527","longitude":"15.648803","name":"Longyearbyen, Svalbard, Norway","id":"longyearbyen-svalbard-norway","city_id":9672},{"latitude":"34.053411","longitude":"-118.245372","name":"Los Angeles, California, United States","id":"los-angeles-california-united-states","city_id":3678},{"latitude":"52.471371","longitude":"1.729180","name":"Lowestoft, United Kingdom","id":"lowestoft-united-kingdom","city_id":3084},{"latitude":"-8.812877","longitude":"13.235034","name":"Luanda, Angola","id":"luanda-angola","city_id":4190},{"latitude":"-13.866878","longitude":"12.531031","name":"Lucira, Angola","id":"lucira-angola","city_id":11507},{"latitude":"57.105549","longitude":"-7.328139","name":"Ludag, United Kingdom","id":"ludag-united-kingdom","city_id":15867},{"latitude":"-15.506428","longitude":"167.200293","name":"Luganville, Vanuatu","id":"luganville-vanuatu","city_id":16149},{"latitude":"-12.278500","longitude":"-76.874298","name":"Lurin, Peru","id":"lurin-peru","city_id":5930},{"latitude":"53.526254","longitude":"-6.165884","name":"Lusk, Ireland","id":"lusk-ireland","city_id":10907},{"latitude":"-0.938759","longitude":"122.792795","name":"Luwuk, Indonesia","id":"luwuk-indonesia","city_id":16620},{"latitude":"57.244807","longitude":"10.514625","name":"Lyngsa, Denmark","id":"lyngsa-denmark","city_id":10320},{"latitude":"42.463661","longitude":"-70.950277","name":"Lynn, Massachusetts, United States","id":"lynn-massachusetts-united-states","city_id":3683},{"latitude":"47.824010","longitude":"-122.315878","name":"Lynnwood, Washington, United States","id":"lynnwood-washington-united-states","city_id":5770},{"latitude":"42.636513","longitude":"8.937087","name":"L’Île-Rousse, France","id":"lle-rousse-france","city_id":7765},{"latitude":"-22.371757","longitude":"-41.785643","name":"Macaé, Brazil","id":"maca-brazil","city_id":3387},{"latitude":"-9.666490","longitude":"-35.734962","name":"Maceió, Brazil","id":"macei-brazil","city_id":3344},{"latitude":"-5.233679","longitude":"145.784873","name":"Madang, Papua New Guinea","id":"madang-papua-new-guinea","city_id":8558},{"latitude":"18.372950","longitude":"-64.937096","name":"Magen's Bay, VI, United States","id":"magens-bay-vi-united-states","city_id":5758},{"latitude":"10.599419","longitude":"-66.960338","name":"Maiquetia, Venezuela","id":"maiquetia-venezuela","city_id":5968},{"latitude":"7.116217","longitude":"171.185643","name":"Majuro, Republic of Marshall Islands","id":"majuro-republic-of-marshall-islands","city_id":9060},{"latitude":"21.460253","longitude":"-158.206046","name":"Makaha, Hawaii, United States","id":"makaha-hawaii-united-states","city_id":5760},{"latitude":"-5.152234","longitude":"119.412425","name":"Makassar, Indonesia","id":"makassar-indonesia","city_id":9720},{"latitude":"3.749813","longitude":"8.783376","name":"Malabo, Equatorial Guinea","id":"malabo-equatorial-guinea","city_id":4224},{"latitude":"-34.900364","longitude":"-54.950187","name":"Maldonado, Uruguay","id":"maldonado-uruguay","city_id":5963},{"latitude":"4.166316","longitude":"73.499947","name":"Male, Maldives","id":"male-maldives","city_id":4251},{"latitude":"57.008479","longitude":"-5.820425","name":"Mallaigvaig, United Kingdom","id":"mallaigvaig-united-kingdom","city_id":15864},{"latitude":"1.490927","longitude":"124.839571","name":"Manado, Indonesia","id":"manado-indonesia","city_id":15115},{"latitude":"26.229001","longitude":"50.575837","name":"Manama, Bahrain","id":"manama-bahrain","city_id":4188},{"latitude":"40.123330","longitude":"-74.047053","name":"Manasquan, New Jersey, United States","id":"manasquan-new-jersey-united-states","city_id":3686},{"latitude":"-39.625460","longitude":"175.618258","name":"Manawatu-Wanganui, New Zealand","id":"manawatu-wanganui-new-zealand","city_id":7853},{"latitude":"38.969229","longitude":"-123.686971","name":"Manchester, California, United States","id":"manchester-california-united-states","city_id":3687},{"latitude":"-4.153992","longitude":"-81.053788","name":"Mancora, Peru","id":"mancora-peru","city_id":8484},{"latitude":"20.743457","longitude":"-156.896867","name":"Manele Bay, HI, United States","id":"manele-bay-hi-united-states","city_id":16122},{"latitude":"-36.126145","longitude":"174.574508","name":"Mangawhai, New Zealand","id":"mangawhai-new-zealand","city_id":16442},{"latitude":"33.887103","longitude":"-118.410801","name":"Manhattan Beach, California, United States","id":"manhattan-beach-california-united-states","city_id":4979},{"latitude":"-0.861416","longitude":"134.062027","name":"Manokwari, Indonesia","id":"manokwari-indonesia","city_id":16630},{"latitude":"-0.949990","longitude":"-80.716190","name":"Manta, Ecuador","id":"manta-ecuador","city_id":8918},{"latitude":"-25.968533","longitude":"32.580631","name":"Maputo, Mozambique","id":"maputo-mozambique","city_id":4252},{"latitude":"9.437310","longitude":"-79.753544","name":"Maria Chiquita, Panama","id":"maria-chiquita-panama","city_id":5928},{"latitude":"60.113848","longitude":"19.937863","name":"Mariehamn, Finland","id":"mariehamn-finland","city_id":5830},{"latitude":"54.191390","longitude":"12.149488","name":"Markgrafenheide, Germany","id":"markgrafenheide-germany","city_id":14585},{"latitude":"-41.527217","longitude":"173.580759","name":"Marlborough, New Zealand","id":"marlborough-new-zealand","city_id":7854},{"latitude":"36.855265","longitude":"28.253679","name":"Marmaris, Turkey","id":"marmaris-turkey","city_id":5959},{"latitude":"43.293153","longitude":"5.372636","name":"Marseille, France","id":"marseille-france","city_id":3210},{"latitude":"35.037493","longitude":"139.816908","name":"Maruyama, Japan","id":"maruyama-japan","city_id":5887},{"latitude":"12.366703","longitude":"123.616720","name":"Masbate City, Philippines","id":"masbate-city-philippines","city_id":16047},{"latitude":"-3.297840","longitude":"128.955292","name":"Masohi, Indonesia","id":"masohi-indonesia","city_id":16625},{"latitude":"5.940827","longitude":"80.539885","name":"Matara, Sri Lanka","id":"matara-sri-lanka","city_id":15021},{"latitude":"-8.586412","longitude":"116.081567","name":"Mataram, Indonesia","id":"mataram-indonesia","city_id":14613},{"latitude":"20.950488","longitude":"-73.683088","name":"Matthew Town, Bahamas","id":"matthew-town-bahamas","city_id":9581},{"latitude":"22.401561","longitude":"-73.064143","name":"Mayaguana, Bahamas","id":"mayaguana-bahamas","city_id":10362},{"latitude":"60.003985","longitude":"-1.323797","name":"Maywick, United Kingdom","id":"maywick-united-kingdom","city_id":8684},{"latitude":"37.650089","longitude":"12.591285","name":"Mazara del Vallo, Italy","id":"mazara-del-vallo-italy","city_id":3215},{"latitude":"23.199510","longitude":"-106.421891","name":"Mazatlán, Mexico","id":"mazatln-mexico","city_id":3470},{"latitude":"-38.443624","longitude":"147.071201","name":"McGaurans Beach, Australia","id":"mcgaurans-beach-australia","city_id":10797},{"latitude":"61.015703","longitude":"-149.732173","name":"McHugh Point, Alaska, United States","id":"mchugh-point-alaska-united-states","city_id":15023},{"latitude":"3.752156","longitude":"98.676107","name":"Medan, Indonesia","id":"medan-indonesia","city_id":5861},{"latitude":"-41.806904","longitude":"-73.155305","name":"Meimen, Chile","id":"meimen-chile","city_id":16012},{"latitude":"2.273153","longitude":"102.220929","name":"Melaka, Malaysia","id":"melaka-malaysia","city_id":6300},{"latitude":"-33.727220","longitude":"18.445774","name":"Melkbosstrand, South Africa","id":"melkbosstrand-south-africa","city_id":5941},{"latitude":"-8.499107","longitude":"140.404993","name":"Merauke, Indonesia","id":"merauke-indonesia","city_id":16576},{"latitude":"59.400860","longitude":"24.276631","name":"Meremöisa, Estonia","id":"meremisa-estonia","city_id":5999},{"latitude":"36.799992","longitude":"34.633364","name":"Mersin, Turkey","id":"mersin-turkey","city_id":9080},{"latitude":"2.295516","longitude":"103.849932","name":"Mersing, Malaysia","id":"mersing-malaysia","city_id":5902},{"latitude":"45.495886","longitude":"12.244117","name":"Mestre, Italy","id":"mestre-italy","city_id":6016},{"latitude":"25.788669","longitude":"-80.226396","name":"Miami, Florida, United States","id":"miami-florida-united-states","city_id":3696},{"latitude":"54.259945","longitude":"16.062279","name":"Mielno, Poland","id":"mielno-poland","city_id":5993},{"latitude":"48.207604","longitude":"-53.960246","name":"Milton, Newfoundland and Labrador, Canada","id":"milton-newfoundland-and-labrador-canada","city_id":8542},{"latitude":"18.453419","longitude":"-66.082897","name":"Miramar, Puerto Rico, United States","id":"miramar-puerto-rico-united-states","city_id":5762},{"latitude":"4.425300","longitude":"114.007447","name":"Miri, Malaysia","id":"miri-malaysia","city_id":7809},{"latitude":"32.374311","longitude":"15.094799","name":"Misurata, Libya","id":"misurata-libya","city_id":7867},{"latitude":"35.144036","longitude":"139.620619","name":"Miura, Japan","id":"miura-japan","city_id":5889},{"latitude":"13.320316","longitude":"43.247325","name":"Mocha, Yemen","id":"mocha-yemen","city_id":16693},{"latitude":"2.041220","longitude":"45.344199","name":"Mogadishu, Somalia","id":"mogadishu-somalia","city_id":4255},{"latitude":"-4.053211","longitude":"39.672815","name":"Mombasa, Kenya","id":"mombasa-kenya","city_id":5896},{"latitude":"43.732606","longitude":"7.417654","name":"Monaco, Monaco","id":"monaco-monaco","city_id":3255},{"latitude":"6.300104","longitude":"-10.797181","name":"Monrovia, Liberia","id":"monrovia-liberia","city_id":4178},{"latitude":"43.739735","longitude":"7.427225","name":"Monte Carlo, Monaco","id":"monte-carlo-monaco","city_id":6028},{"latitude":"-17.538752","longitude":"-149.829536","name":"Moorea, French Polynesia","id":"moorea-french-polynesia","city_id":14798},{"latitude":"17.918360","longitude":"-76.184357","name":"Morant Point, Jamaica","id":"morant-point-jamaica","city_id":8685},{"latitude":"-11.700668","longitude":"43.243418","name":"Moroni, Comoros","id":"moroni-comoros","city_id":4227},{"latitude":"35.366692","longitude":"-120.847226","name":"Morro Bay, California, United States","id":"morro-bay-california-united-states","city_id":5751},{"latitude":"55.575862","longitude":"12.273023","name":"Mosede, Denmark","id":"mosede-denmark","city_id":14583},{"latitude":"-20.705938","longitude":"166.488965","name":"Mouly, New Caledonia","id":"mouly-new-caledonia","city_id":14839},{"latitude":"35.898723","longitude":"14.488159","name":"Msida, Malta","id":"msida-malta","city_id":4058},{"latitude":"6.832721","longitude":"79.866741","name":"Mt. Lavinia, Sri Lanka","id":"mt-lavinia-sri-lanka","city_id":5949},{"latitude":"-28.950660","longitude":"31.757877","name":"Mtunzini, South Africa","id":"mtunzini-south-africa","city_id":5942},{"latitude":"-5.933386","longitude":"12.349878","name":"Muanda, Congo, Dem. Rep.","id":"muanda-congo-dem-rep-","city_id":9426},{"latitude":"19.075782","longitude":"72.875924","name":"Mumbai, India","id":"mumbai-india","city_id":3212},{"latitude":"-2.065126","longitude":"105.164287","name":"Muntok, Indonesia","id":"muntok-indonesia","city_id":16617},{"latitude":"23.615135","longitude":"58.591067","name":"Muscat, Oman","id":"muscat-oman","city_id":4225},{"latitude":"-12.166684","longitude":"44.400058","name":"Mutsamudu, Comoros","id":"mutsamudu-comoros","city_id":14841},{"latitude":"-7.233385","longitude":"12.866675","name":"N'zeto, Angola","id":"nzeto-angola","city_id":11504},{"latitude":"33.011224","longitude":"35.094692","name":"Nahariyya, Israel","id":"nahariyya-israel","city_id":5866},{"latitude":"42.812294","longitude":"132.874040","name":"Nakhodka, Russia","id":"nakhodka-russia","city_id":5362},{"latitude":"-15.186995","longitude":"12.156031","name":"Namibe, Angola","id":"namibe-angola","city_id":11508},{"latitude":"-3.233387","longitude":"127.085859","name":"Namlea, Indonesia","id":"namlea-indonesia","city_id":16624},{"latitude":"30.306343","longitude":"121.191428","name":"Nanhui, China","id":"nanhui-china","city_id":5804},{"latitude":"18.414747","longitude":"-64.597253","name":"Nanny Cay, Virgin Islands (U.K.)","id":"nanny-cay-virgin-islands-u-k-","city_id":10121},{"latitude":"47.218054","longitude":"-1.553045","name":"Nantes, France","id":"nantes-france","city_id":3286},{"latitude":"37.169718","longitude":"138.242104","name":"Naoetsu, Japan","id":"naoetsu-japan","city_id":5529},{"latitude":"57.426838","longitude":"-152.329145","name":"Narrow Cape, Alaska, United States","id":"narrow-cape-alaska-united-states","city_id":8395},{"latitude":"25.067088","longitude":"-77.340264","name":"Nassau, Bahamas","id":"nassau-bahamas","city_id":4230},{"latitude":"14.317581","longitude":"120.695823","name":"Nasugbu, Philippines","id":"nasugbu-philippines","city_id":9603},{"latitude":"-5.794812","longitude":"-35.211183","name":"Natal, Brazil","id":"natal-brazil","city_id":3354},{"latitude":"45.643738","longitude":"-123.940096","name":"Nedonna Beach, Oregon, United States","id":"nedonna-beach-oregon-united-states","city_id":3711},{"latitude":"13.078812","longitude":"-59.612734","name":"Needham’s Point, Barbados","id":"needhams-point-barbados","city_id":6183},{"latitude":"46.684460","longitude":"141.859094","name":"Nevelsk, Russia","id":"nevelsk-russia","city_id":8366},{"latitude":"46.252917","longitude":"-60.129579","name":"New Victoria, NS, Canada","id":"new-victoria-ns-canada","city_id":9374},{"latitude":"59.718145","longitude":"-154.899749","name":"Newhalem, Alaska, United States","id":"newhalem-alaska-united-states","city_id":15029},{"latitude":"16.858009","longitude":"94.391246","name":"Ngwe Saung, Myanmar","id":"ngwe-saung-myanmar","city_id":14639},{"latitude":"60.689824","longitude":"-151.291694","name":"Nikiski, Alaska, United States","id":"nikiski-alaska-united-states","city_id":8540},{"latitude":"35.299407","longitude":"139.255384","name":"Ninomiya, Japan","id":"ninomiya-japan","city_id":5890},{"latitude":"64.501151","longitude":"-165.406384","name":"Nome, Alaska, United States","id":"nome-alaska-united-states","city_id":16437},{"latitude":"59.972637","longitude":"-154.847698","name":"Nondalton, Alaska, United States","id":"nondalton-alaska-united-states","city_id":15030},{"latitude":"53.595492","longitude":"7.201834","name":"Norden, Germany","id":"norden-germany","city_id":5840},{"latitude":"-8.241100","longitude":"157.199907","name":"Noro, Solomon Islands","id":"noro-solomon-islands","city_id":10984},{"latitude":"59.759649","longitude":"18.701340","name":"Norrtalge, Sweden","id":"norrtalge-sweden","city_id":6171},{"latitude":"57.025275","longitude":"-7.449477","name":"North Bay, United Kingdom","id":"north-bay-united-kingdom","city_id":15869},{"latitude":"25.932907","longitude":"-80.162382","name":"North Miami Beach, Florida, United States","id":"north-miami-beach-florida-united-states","city_id":5772},{"latitude":"12.163773","longitude":"-68.284116","name":"North Salina, Bonaire, Netherlands","id":"north-salina-bonaire-netherlands","city_id":10730},{"latitude":"13.419241","longitude":"144.646007","name":"North Tipalao, GU, United States","id":"north-tipalao-gu-united-states","city_id":16370},{"latitude":"40.909463","longitude":"-73.344124","name":"Northport, New York, United States","id":"northport-new-york-united-states","city_id":9762},{"latitude":"18.083888","longitude":"-15.978282","name":"Nouakchott, Mauritania","id":"nouakchott-mauritania","city_id":4192},{"latitude":"-22.303300","longitude":"166.439160","name":"Noumea, New Caledonia","id":"noumea-new-caledonia","city_id":5704},{"latitude":"44.723621","longitude":"37.772816","name":"Novorossiysk, Russia","id":"novorossiysk-russia","city_id":5117},{"latitude":"-21.133281","longitude":"-175.200032","name":"Nuku'alofa, Tonga","id":"nukualofa-tonga","city_id":10315},{"latitude":"64.181131","longitude":"-51.729974","name":"Nuuk, Greenland","id":"nuuk-greenland","city_id":8488},{"latitude":"-4.050477","longitude":"39.700061","name":"Nyali, Kenya","id":"nyali-kenya","city_id":10122},{"latitude":"55.324104","longitude":"10.799489","name":"Nybor, Denmark","id":"nybor-denmark","city_id":13466},{"latitude":"58.902911","longitude":"17.946555","name":"Nynashamn, Sweden","id":"nynashamn-sweden","city_id":5951},{"latitude":"18.398536","longitude":"-77.103204","name":"Ocho Rios, Jamaica","id":"ocho-rios-jamaica","city_id":7688},{"latitude":"53.577523","longitude":"142.942492","name":"Okha, Russia","id":"okha-russia","city_id":15833},{"latitude":"26.212399","longitude":"127.680585","name":"Okinawa, Japan","id":"okinawa-japan","city_id":5886},{"latitude":"59.583380","longitude":"151.283308","name":"Ola, Russia","id":"ola-russia","city_id":15834},{"latitude":"40.922549","longitude":"9.486892","name":"Olbia, Italy","id":"olbia-italy","city_id":8592},{"latitude":"-21.637871","longitude":"115.113306","name":"Onslow, Australia","id":"onslow-australia","city_id":14675},{"latitude":"35.701653","longitude":"-0.641961","name":"Oran, Algeria","id":"oran-algeria","city_id":8359},{"latitude":"17.481837","longitude":"-62.987049","name":"Oranjestad Bay, Bonaire, Sint Eustatius and Saba","id":"oranjestad-bay-bonaire-sint-eustatius-and-saba","city_id":16283},{"latitude":"11.006938","longitude":"124.612813","name":"Ormoc, Philippines","id":"ormoc-philippines","city_id":9387},{"latitude":"55.891682","longitude":"-5.614566","name":"Ormsary, United Kingdom","id":"ormsary-united-kingdom","city_id":15851},{"latitude":"51.231138","longitude":"2.912676","name":"Ostend, Belgium","id":"ostend-belgium","city_id":5789},{"latitude":"57.313459","longitude":"11.199293","name":"Osterby, Denmark","id":"osterby-denmark","city_id":10322},{"latitude":"40.148037","longitude":"18.485715","name":"Otranto, Italy","id":"otranto-italy","city_id":6027},{"latitude":"56.008284","longitude":"-5.321207","name":"Otter Ferry, United Kingdom","id":"otter-ferry-united-kingdom","city_id":15839},{"latitude":"-33.737377","longitude":"151.245027","name":"Oxford Falls, Australia","id":"oxford-falls-australia","city_id":5778},{"latitude":"51.557798","longitude":"-4.169596","name":"Oxwich Bay, United Kingdom","id":"oxwich-bay-united-kingdom","city_id":3145},{"latitude":"8.150006","longitude":"123.850021","name":"Ozamiz City, Philippines","id":"ozamiz-city-philippines","city_id":16052},{"latitude":"25.149998","longitude":"121.383225","name":"Pa Li, Taiwan","id":"pa-li-taiwan","city_id":5983},{"latitude":"45.201941","longitude":"-123.962654","name":"Pacific City, OR, United States","id":"pacific-city-or-united-states","city_id":3730},{"latitude":"-0.943838","longitude":"100.361653","name":"Padang, Indonesia","id":"padang-indonesia","city_id":9722},{"latitude":"-33.882103","longitude":"151.228621","name":"Paddington, Australia","id":"paddington-australia","city_id":5779},{"latitude":"32.280561","longitude":"-64.788708","name":"Paget, Bermuda","id":"paget-bermuda","city_id":9069},{"latitude":"-14.276546","longitude":"-170.695689","name":"Pago Pago, American Samoa","id":"pago-pago-american-samoa","city_id":9070},{"latitude":"-2.991005","longitude":"104.757354","name":"Palembang, Indonesia","id":"palembang-indonesia","city_id":9723},{"latitude":"38.121476","longitude":"13.358374","name":"Palermo, Italy","id":"palermo-italy","city_id":3177},{"latitude":"39.552335","longitude":"2.605254","name":"Palma, Spain","id":"palma-spain","city_id":4723},{"latitude":"14.923049","longitude":"-23.521247","name":"Palmarejo, Cape Verde","id":"palmarejo-cape-verde","city_id":10725},{"latitude":"8.964556","longitude":"-79.536699","name":"Panama City, Panama","id":"panama-city-panama","city_id":3334},{"latitude":"-2.849696","longitude":"111.752956","name":"Pankalan, Indonesia","id":"pankalan-indonesia","city_id":14608},{"latitude":"-17.512384","longitude":"-149.441060","name":"Papenoo, French Polynesia","id":"papenoo-french-polynesia","city_id":8974},{"latitude":"7.234088","longitude":"124.312423","name":"Parang, Philippines","id":"parang-philippines","city_id":16369},{"latitude":"60.306621","longitude":"22.301046","name":"Pargas, Finland","id":"pargas-finland","city_id":6083},{"latitude":"55.030940","longitude":"14.992162","name":"Pedersker, Denmark","id":"pedersker-denmark","city_id":5822},{"latitude":"59.787188","longitude":"-154.106097","name":"Pedro Bay, Alaska, United States","id":"pedro-bay-alaska-united-states","city_id":15025},{"latitude":"54.222445","longitude":"-4.691422","name":"Peel, United Kingdom","id":"peel-united-kingdom","city_id":13372},{"latitude":"0.533310","longitude":"101.450031","name":"Pekanbaru, Indonesia","id":"pekanbaru-indonesia","city_id":9724},{"latitude":"49.509556","longitude":"-2.537614","name":"Pembroke, United Kingdom","id":"pembroke-united-kingdom","city_id":10373},{"latitude":"5.353620","longitude":"100.363020","name":"Penang, Malaysia","id":"penang-malaysia","city_id":3307},{"latitude":"3.666707","longitude":"108.290262","name":"Penarik, Indonesia","id":"penarik-indonesia","city_id":16634},{"latitude":"47.811315","longitude":"-4.338688","name":"Penmarch, France","id":"penmarch-france","city_id":3119},{"latitude":"34.828509","longitude":"33.603579","name":"Pentaskhinos, Cyprus","id":"pentaskhinos-cyprus","city_id":5812},{"latitude":"-31.953393","longitude":"115.857251","name":"Perth, Australia","id":"perth-australia","city_id":3239},{"latitude":"-1.553896","longitude":"105.582744","name":"Pesaren, Indonesia","id":"pesaren-indonesia","city_id":16014},{"latitude":"56.807600","longitude":"-132.970072","name":"Petersburg, Alaska, United States","id":"petersburg-alaska-united-states","city_id":8550},{"latitude":"50.819028","longitude":"0.366681","name":"Pevensey Bay, United Kingdom","id":"pevensey-bay-united-kingdom","city_id":6050},{"latitude":"28.040621","longitude":"-15.408800","name":"Piedra Santa, Spain","id":"piedra-santa-spain","city_id":14646},{"latitude":"11.165434","longitude":"-60.840321","name":"Pigeon Point, Trinidad and Tobago","id":"pigeon-point-trinidad-and-tobago","city_id":14807},{"latitude":"59.776055","longitude":"-153.880462","name":"Pile Bay, Alaska, United States","id":"pile-bay-alaska-united-states","city_id":15026},{"latitude":"13.045804","longitude":"121.464573","name":"Pinamalayan, Philippines","id":"pinamalayan-philippines","city_id":16046},{"latitude":"13.464652","longitude":"144.694640","name":"Piti, Guam","id":"piti-guam","city_id":5973},{"latitude":"48.534752","longitude":"-2.768083","name":"Plerin, France","id":"plerin-france","city_id":5836},{"latitude":"16.706545","longitude":"-62.215711","name":"Plymouth, Montserrat","id":"plymouth-montserrat","city_id":4355},{"latitude":"7.786432","longitude":"159.070219","name":"Pohnpei, Federated States of Micronesia","id":"pohnpei-federated-states-of-micronesia","city_id":9062},{"latitude":"-20.945879","longitude":"165.341505","name":"Poindimie, New Caledonia","id":"poindimie-new-caledonia","city_id":14837},{"latitude":"68.347731","longitude":"-166.808044","name":"Point Hope, Alaska, United States","id":"point-hope-alaska-united-states","city_id":16440},{"latitude":"-4.779090","longitude":"11.863648","name":"Point Noire, Congo, Rep.","id":"point-noire-congo-rep-","city_id":5971},{"latitude":"16.241017","longitude":"-61.533094","name":"Pointe-a-Pitre, Guadeloupe","id":"pointe-a-pitre-guadeloupe","city_id":4906},{"latitude":"37.739249","longitude":"-25.668756","name":"Ponta Delgada, Portugal","id":"ponta-delgada-portugal","city_id":5945},{"latitude":"-0.027432","longitude":"109.335477","name":"Pontianak, Indonesia","id":"pontianak-indonesia","city_id":8360},{"latitude":"60.200372","longitude":"-154.336907","name":"Port Alwsorth, Alaska, United States","id":"port-alwsorth-alaska-united-states","city_id":15032},{"latitude":"55.847737","longitude":"-6.106314","name":"Port Askaig, United Kingdom","id":"port-askaig-united-kingdom","city_id":15846},{"latitude":"-0.720986","longitude":"8.781618","name":"Port Gentil, Gabon","id":"port-gentil-gabon","city_id":10818},{"latitude":"54.099984","longitude":"-4.566666","name":"Port Grenaugh, United Kingdom","id":"port-grenaugh-united-kingdom","city_id":13370},{"latitude":"-20.313457","longitude":"118.577269","name":"Port Hedland, Australia","id":"port-hedland-australia","city_id":5777},{"latitude":"-9.479576","longitude":"147.188584","name":"Port Moresby, Papua New Guinea","id":"port-moresby-papua-new-guinea","city_id":3925},{"latitude":"23.652147","longitude":"-74.840558","name":"Port Nelson, Bahamas","id":"port-nelson-bahamas","city_id":10363},{"latitude":"10.649809","longitude":"-61.516688","name":"Port of Spain, Trinidad and Tobago","id":"port-of-spain-trinidad-and-tobago","city_id":4236},{"latitude":"19.615528","longitude":"37.219691","name":"Port Sudan, Sudan","id":"port-sudan-sudan","city_id":5950},{"latitude":"-17.730353","longitude":"168.322753","name":"Port Vila, Vanuatu","id":"port-vila-vanuatu","city_id":9086},{"latitude":"18.542677","longitude":"-72.343148","name":"Port-au-Prince, Haiti","id":"port-au-prince-haiti","city_id":3878},{"latitude":"55.742756","longitude":"-4.943863","name":"Portachur Point, United Kingdom","id":"portachur-point-united-kingdom","city_id":15872},{"latitude":"60.828301","longitude":"-148.989791","name":"Portage, Alaska, United States","id":"portage-alaska-united-states","city_id":15022},{"latitude":"49.919908","longitude":"-6.308169","name":"Porthcressa Beach, United Kingdom","id":"porthcressa-beach-united-kingdom","city_id":15836},{"latitude":"50.043052","longitude":"-5.654507","name":"Porthcurno, United Kingdom","id":"porthcurno-united-kingdom","city_id":3082},{"latitude":"-10.703013","longitude":"13.782300","name":"Porto Amboim, Angola","id":"porto-amboim-angola","city_id":11505},{"latitude":"33.047357","longitude":"-16.347666","name":"Porto Santo, Madeira, Portugal","id":"porto-santo-madeira-portugal","city_id":7784},{"latitude":"-16.451057","longitude":"-39.064697","name":"Porto Seguro, Brazil","id":"porto-seguro-brazil","city_id":5493},{"latitude":"54.843733","longitude":"-5.115543","name":"Portpatrick, United Kingdom","id":"portpatrick-united-kingdom","city_id":7731},{"latitude":"42.150771","longitude":"41.667638","name":"Poti, Georgia","id":"poti-georgia","city_id":5530},{"latitude":"36.733684","longitude":"14.853881","name":"Pozzallo, Italy","id":"pozzallo-italy","city_id":8972},{"latitude":"-24.008866","longitude":"-46.412496","name":"Praia Grande, Brazil","id":"praia-grande-brazil","city_id":16413},{"latitude":"14.923049","longitude":"-23.521247","name":"Praia, Cape Verde","id":"praia-cape-verde","city_id":4257},{"latitude":"21.851073","longitude":"-72.120247","name":"Providenciales, Turks and Caicos Islands","id":"providenciales-turks-and-caicos-islands","city_id":4258},{"latitude":"70.255640","longitude":"-148.338424","name":"Prudhoe Bay, Alaska, United States","id":"prudhoe-bay-alaska-united-states","city_id":13390},{"latitude":"15.727151","longitude":"-88.597241","name":"Puerto Barrios, Guatemala","id":"puerto-barrios-guatemala","city_id":5848},{"latitude":"14.021585","longitude":"-83.393924","name":"Puerto Cabezas, Nicaragua","id":"puerto-cabezas-nicaragua","city_id":5921},{"latitude":"-45.458269","longitude":"-72.805110","name":"Puerto Chacabuco, Chile","id":"puerto-chacabuco-chile","city_id":14844},{"latitude":"15.844826","longitude":"-87.946070","name":"Puerto Cortes, Honduras","id":"puerto-cortes-honduras","city_id":5851},{"latitude":"15.261233","longitude":"-83.776785","name":"Puerto Lempira, Honduras","id":"puerto-lempira-honduras","city_id":5692},{"latitude":"9.988579","longitude":"-83.037674","name":"Puerto Limon, Costa Rica","id":"puerto-limon-costa-rica","city_id":5810},{"latitude":"19.799317","longitude":"-70.691244","name":"Puerto Plata, Dominican Republic","id":"puerto-plata-dominican-republic","city_id":5823},{"latitude":"13.934573","longitude":"-90.822240","name":"Puerto San Jose, Guatemala","id":"puerto-san-jose-guatemala","city_id":5849},{"latitude":"10.611235","longitude":"-67.029966","name":"Puerto Viejo, Venezuela","id":"puerto-viejo-venezuela","city_id":5967},{"latitude":"18.621290","longitude":"-68.438267","name":"Punta Cana, Dominican Republic","id":"punta-cana-dominican-republic","city_id":5694},{"latitude":"-2.272939","longitude":"-80.914433","name":"Punta Carnero, Ecuador","id":"punta-carnero-ecuador","city_id":5824},{"latitude":"-52.390200","longitude":"-68.419761","name":"Punta Dungeness, Argentina","id":"punta-dungeness-argentina","city_id":16513},{"latitude":"11.708598","longitude":"-70.204379","name":"Punto Fijo, Venezuela","id":"punto-fijo-venezuela","city_id":5965},{"latitude":"35.170110","longitude":"128.999335","name":"Pusan, Korea, Rep.","id":"pusan-korea-rep-","city_id":4183},{"latitude":"54.496077","longitude":"11.212477","name":"Puttgarden, Germany","id":"puttgarden-germany","city_id":5839},{"latitude":"16.282228","longitude":"95.681968","name":"Pyapon, Myanmar","id":"pyapon-myanmar","city_id":5911},{"latitude":"23.615135","longitude":"58.591067","name":"Qalhat, Oman","id":"qalhat-oman","city_id":10684},{"latitude":"60.718926","longitude":"-46.035396","name":"Qaqortoq, Greenland","id":"qaqortoq-greenland","city_id":8543},{"latitude":"36.087102","longitude":"120.342600","name":"Qingdao, China","id":"qingdao-china","city_id":6012},{"latitude":"-43.117450","longitude":"-73.479475","name":"Quellon, Chile","id":"quellon-chile","city_id":14843},{"latitude":"-37.801437","longitude":"174.871774","name":"Raglan, New Zealand","id":"raglan-new-zealand","city_id":15884},{"latitude":"2.105184","longitude":"99.827864","name":"Rantu Prapat, Indonesia","id":"rantu-prapat-indonesia","city_id":16286},{"latitude":"30.586714","longitude":"18.411887","name":"Ras Lanuf, Libya","id":"ras-lanuf-libya","city_id":7869},{"latitude":"6.820417","longitude":"79.889299","name":"Ratmalana, Sri Lanka","id":"ratmalana-sri-lanka","city_id":14621},{"latitude":"12.670609","longitude":"101.277375","name":"Rayong, Thailand","id":"rayong-thailand","city_id":10985},{"latitude":"-8.055358","longitude":"-34.871974","name":"Recife, Brazil","id":"recife-brazil","city_id":3352},{"latitude":"33.844427","longitude":"-118.388047","name":"Redondo Beach, California, United States","id":"redondo-beach-california-united-states","city_id":4992},{"latitude":"1.677157","longitude":"103.147687","name":"Rengit, Malaysia","id":"rengit-malaysia","city_id":8970},{"latitude":"54.243343","longitude":"12.431519","name":"Ribnitz, Germany","id":"ribnitz-germany","city_id":5842},{"latitude":"26.616696","longitude":"-78.245879","name":"Riding Point, Bahamas","id":"riding-point-bahamas","city_id":8354},{"latitude":"-22.903397","longitude":"-43.209568","name":"Rio de Janeiro, Brazil","id":"rio-de-janeiro-brazil","city_id":3242},{"latitude":"11.482914","longitude":"-72.952718","name":"Riohacha, Colombia","id":"riohacha-colombia","city_id":5807},{"latitude":"54.663069","longitude":"11.358668","name":"Rodbyhavn, Denmark","id":"rodbyhavn-denmark","city_id":5814},{"latitude":"14.035647","longitude":"-60.988563","name":"Rodney Bay, Saint Lucia","id":"rodney-bay-saint-lucia","city_id":8837},{"latitude":"47.617663","longitude":"-58.686611","name":"Rose Blanche, NL, Canada","id":"rose-blanche-nl-canada","city_id":9375},{"latitude":"15.251760","longitude":"-61.370741","name":"Roseau, Dominica","id":"roseau-dominica","city_id":4260},{"latitude":"54.078890","longitude":"12.132398","name":"Rostock, Germany","id":"rostock-germany","city_id":3130},{"latitude":"14.151858","longitude":"145.212413","name":"Rota, Northern Mariana Islands","id":"rota-northern-mariana-islands","city_id":13409},{"latitude":"36.626262","longitude":"-6.363003","name":"Rota, Spain","id":"rota-spain","city_id":10400},{"latitude":"11.583305","longitude":"122.750021","name":"Roxas, Philippines","id":"roxas-philippines","city_id":7840},{"latitude":"57.330842","longitude":"10.516579","name":"Saeby, Denmark","id":"saeby-denmark","city_id":10606},{"latitude":"33.450189","longitude":"35.386293","name":"Saida, Lebanon","id":"saida-lebanon","city_id":6047},{"latitude":"17.900099","longitude":"-62.833386","name":"Saint Barthelemy, Guadeloupe","id":"saint-barthelemy-guadeloupe","city_id":7876},{"latitude":"18.031056","longitude":"-63.073718","name":"Saint Maarten, Sint Maarten","id":"saint-maarten-sint-maarten","city_id":10728},{"latitude":"18.092774","longitude":"-63.050086","name":"Saint Martin, Guadeloupe","id":"saint-martin-guadeloupe","city_id":7875},{"latitude":"-21.000273","longitude":"55.279155","name":"Saint Paul, Réunion","id":"saint-paul-runion","city_id":5978},{"latitude":"-20.897344","longitude":"55.549956","name":"Sainte Marie, Réunion","id":"sainte-marie-runion","city_id":9399},{"latitude":"49.423326","longitude":"-2.558025","name":"Saints Bay, United Kingdom","id":"saints-bay-united-kingdom","city_id":10374},{"latitude":"15.177737","longitude":"145.750889","name":"Saipan, Northern Mariana Islands","id":"saipan-northern-mariana-islands","city_id":13408},{"latitude":"1.258896","longitude":"103.704229","name":"Sakra Island, Singapore","id":"sakra-island-singapore","city_id":10307},{"latitude":"17.095802","longitude":"54.148101","name":"Salalah, Oman","id":"salalah-oman","city_id":5924},{"latitude":"55.637581","longitude":"-4.783512","name":"Saltcoats, United Kingdom","id":"saltcoats-united-kingdom","city_id":13376},{"latitude":"-12.970004","longitude":"-38.504541","name":"Salvador, Brazil","id":"salvador-brazil","city_id":3342},{"latitude":"36.082317","longitude":"35.999281","name":"Samandag, Turkey","id":"samandag-turkey","city_id":10382},{"latitude":"-0.502236","longitude":"117.153832","name":"Samarinda, Indonesia","id":"samarinda-indonesia","city_id":9725},{"latitude":"12.584672","longitude":"-81.700565","name":"San Andres, Colombia","id":"san-andres-colombia","city_id":15182},{"latitude":"10.748833","longitude":"121.941330","name":"San Jose de Buenavista, Philippines","id":"san-jose-de-buenavista-philippines","city_id":14753},{"latitude":"12.362601","longitude":"121.050120","name":"San Jose, Philippines","id":"san-jose-philippines","city_id":7841},{"latitude":"18.465821","longitude":"-66.106676","name":"San Juan, Puerto Rico, United States","id":"san-juan-puerto-rico-united-states","city_id":4262},{"latitude":"35.285051","longitude":"-120.662753","name":"San Luis Obispo, California, United States","id":"san-luis-obispo-california-united-states","city_id":3772},{"latitude":"-2.201454","longitude":"125.937031","name":"Sanana, Indonesia","id":"sanana-indonesia","city_id":16623},{"latitude":"57.366681","longitude":"-7.274136","name":"Sandwick Village, United Kingdom","id":"sandwick-village-united-kingdom","city_id":15862},{"latitude":"59.995977","longitude":"-1.238689","name":"Sandwick, United Kingdom","id":"sandwick-united-kingdom","city_id":8683},{"latitude":"-38.820187","longitude":"146.119639","name":"Sandy Point, Australia","id":"sandy-point-australia","city_id":10799},{"latitude":"26.025193","longitude":"-77.399542","name":"Sandy Point, Bahamas","id":"sandy-point-bahamas","city_id":5788},{"latitude":"53.331429","longitude":"-6.215445","name":"Sandymount, Ireland","id":"sandymount-ireland","city_id":5865},{"latitude":"-8.812877","longitude":"13.235034","name":"Sangano, Angola","id":"sangano-angola","city_id":10727},{"latitude":"0.326865","longitude":"117.551000","name":"Sangata, Indonesia","id":"sangata-indonesia","city_id":14609},{"latitude":"28.663180","longitude":"-17.765244","name":"Santa Cruz de La Palma, Canary Islands, Spain","id":"santa-cruz-de-la-palma-canary-islands-spain","city_id":7776},{"latitude":"0.859580","longitude":"6.532889","name":"Santana, Sao Tome and Principe","id":"santana-sao-tome-and-principe","city_id":10094},{"latitude":"20.028809","longitude":"-75.828986","name":"Santiago de Cuba, Cuba","id":"santiago-de-cuba-cuba","city_id":14733},{"latitude":"18.500001","longitude":"-69.983285","name":"Santo Domingo, Dominican Republic","id":"santo-domingo-dominican-republic","city_id":4242},{"latitude":"-23.961795","longitude":"-46.328072","name":"Santos, Brazil","id":"santos-brazil","city_id":3411},{"latitude":"38.432316","longitude":"-28.461235","name":"Sao Mateus, Portugal","id":"sao-mateus-portugal","city_id":14834},{"latitude":"-8.796959","longitude":"118.711839","name":"Saraemee, Indonesia","id":"saraemee-indonesia","city_id":14651},{"latitude":"-2.175282","longitude":"139.353236","name":"Sarmi, Indonesia","id":"sarmi-indonesia","city_id":16628},{"latitude":"14.144925","longitude":"145.134288","name":"Sasanlagu, Rota, Northern Mariana Islands","id":"sasanlagu-rota-northern-mariana-islands","city_id":16551},{"latitude":"6.613190","longitude":"100.066145","name":"Satun, Thailand","id":"satun-thailand","city_id":5956},{"latitude":"44.305555","longitude":"8.483767","name":"Savona, Italy","id":"savona-italy","city_id":5880},{"latitude":"56.503791","longitude":"-6.808511","name":"Scarinish, United Kingdom","id":"scarinish-united-kingdom","city_id":15865},{"latitude":"60.333086","longitude":"-4.333414","name":"Schiehallion, United Kingdom","id":"schiehallion-united-kingdom","city_id":10353},{"latitude":"38.642276","longitude":"-9.107387","name":"Seixal, Portugal","id":"seixal-portugal","city_id":9058},{"latitude":"-8.485436","longitude":"116.047290","name":"Sengigi, Indonesia","id":"sengigi-indonesia","city_id":16516},{"latitude":"50.076060","longitude":"-5.698746","name":"Sennen Cove, United Kingdom","id":"sennen-cove-united-kingdom","city_id":5742},{"latitude":"-8.386217","longitude":"115.746704","name":"Seraya, Indonesia","id":"seraya-indonesia","city_id":16515},{"latitude":"39.354581","longitude":"2.970977","name":"Ses Covetes, Spain","id":"ses-covetes-spain","city_id":5948},{"latitude":"38.442667","longitude":"-9.102748","name":"Sesimbra, Portugal","id":"sesimbra-portugal","city_id":5934},{"latitude":"60.112188","longitude":"-149.443111","name":"Seward, Alaska, United States","id":"seward-alaska-united-states","city_id":5755},{"latitude":"65.251346","longitude":"-14.018029","name":"Seydisfjordur, Iceland","id":"seydisfjordur-iceland","city_id":5859},{"latitude":"31.247553","longitude":"121.472483","name":"Shanghai, China","id":"shanghai-china","city_id":3246},{"latitude":"23.354588","longitude":"116.675512","name":"Shantou, China","id":"shantou-china","city_id":5803},{"latitude":"34.336810","longitude":"136.874331","name":"Shima, Japan","id":"shima-japan","city_id":5883},{"latitude":"36.576262","longitude":"126.391621","name":"Shindu-Ri, Korea, Rep.","id":"shindu-ri-korea-rep-","city_id":5977},{"latitude":"40.800283","longitude":"-72.872249","name":"Shirley, New York, United States","id":"shirley-new-york-united-states","city_id":3783},{"latitude":"1.747763","longitude":"98.786654","name":"Sibolga, Indonesia","id":"sibolga-indonesia","city_id":16287},{"latitude":"19.963672","longitude":"-75.712384","name":"Siboney, Cuba","id":"siboney-cuba","city_id":8351},{"latitude":"10.629985","longitude":"103.506671","name":"Sihanoukville, Cambodia","id":"sihanoukville-cambodia","city_id":9118},{"latitude":"54.210628","longitude":"-3.357145","name":"Silecroft Beach, United Kingdom","id":"silecroft-beach-united-kingdom","city_id":13375},{"latitude":"37.957218","longitude":"-8.869594","name":"Sines, Portugal","id":"sines-portugal","city_id":9754},{"latitude":"1.293661","longitude":"103.853057","name":"Singapore, Singapore","id":"singapore-singapore","city_id":3029},{"latitude":"31.205268","longitude":"16.588353","name":"Sirt, Libya","id":"sirt-libya","city_id":7868},{"latitude":"-11.846664","longitude":"-37.570508","name":"Sitio, Brazil","id":"sitio-brazil","city_id":16689},{"latitude":"57.052912","longitude":"-135.334426","name":"Sitka, Alaska, United States","id":"sitka-alaska-united-states","city_id":8554},{"latitude":"52.207114","longitude":"1.620294","name":"Sizewell, United Kingdom","id":"sizewell-united-kingdom","city_id":8398},{"latitude":"59.458380","longitude":"-135.313918","name":"Skagway, Alaska, United States","id":"skagway-alaska-united-states","city_id":16208},{"latitude":"58.943146","longitude":"-2.717155","name":"Skaill, United Kingdom","id":"skaill-united-kingdom","city_id":16021},{"latitude":"56.683186","longitude":"12.683277","name":"Skalvik, Sweden","id":"skalvik-sweden","city_id":10323},{"latitude":"50.063560","longitude":"-5.675064","name":"Skewjack, United Kingdom","id":"skewjack-united-kingdom","city_id":5741},{"latitude":"43.615516","longitude":"39.725842","name":"Sochi, Russia","id":"sochi-russia","city_id":5092},{"latitude":"12.696390","longitude":"53.486578","name":"Socotra, Yemen","id":"socotra-yemen","city_id":16694},{"latitude":"0.734970","longitude":"127.561445","name":"Sofifi, Indonesia","id":"sofifi-indonesia","city_id":16622},{"latitude":"7.078424","longitude":"100.597004","name":"Songkhla, Thailand","id":"songkhla-thailand","city_id":4265},{"latitude":"-0.882119","longitude":"131.295427","name":"Sorong, Indonesia","id":"sorong-indonesia","city_id":16573},{"latitude":"29.072457","longitude":"49.478083","name":"Soroosh Platform, Iran","id":"soroosh-platform-iran","city_id":10604},{"latitude":"56.078303","longitude":"4.228398","name":"South Arne","id":"south-arne","city_id":10780},{"latitude":"53.647933","longitude":"-3.006364","name":"Southport, United Kingdom","id":"southport-united-kingdom","city_id":3324},{"latitude":"-6.141003","longitude":"12.352125","name":"Soyo, Angola","id":"soyo-angola","city_id":11503},{"latitude":"26.378024","longitude":"-80.067704","name":"Spanish River Park, Florida, United States","id":"spanish-river-park-florida-united-states","city_id":8357},{"latitude":"20.023145","longitude":"-155.822063","name":"Spencer Beach, Hawaii, United States","id":"spencer-beach-hawaii-united-states","city_id":5752},{"latitude":"13.174320","longitude":"100.930598","name":"Sri Racha, Thailand","id":"sri-racha-thailand","city_id":6014},{"latitude":"17.771876","longitude":"-64.819421","name":"St. Croix, Virgin Islands, United States","id":"st-croix-virgin-islands-united-states","city_id":5750},{"latitude":"32.312201","longitude":"-64.769518","name":"St. David’s, Bermuda","id":"st-davids-bermuda","city_id":5793},{"latitude":"12.187992","longitude":"-61.711610","name":"St. George's, Grenada","id":"st-georges-grenada","city_id":4244},{"latitude":"17.051466","longitude":"-61.857947","name":"St. John’s, Antigua and Barbuda","id":"st-johns-antigua-and-barbuda","city_id":4239},{"latitude":"49.215709","longitude":"-2.225896","name":"St. Ouens Bay, Jersey","id":"st-ouens-bay-jersey","city_id":10379},{"latitude":"35.950481","longitude":"14.415600","name":"St. Paul's Bay, Malta","id":"st-pauls-bay-malta","city_id":8561},{"latitude":"18.324513","longitude":"-64.904430","name":"St. Thomas, Virgin Islands (U.S.)","id":"st-thomas-virgin-islands-u-s-","city_id":4359},{"latitude":"49.860435","longitude":"0.708478","name":"St. Valéry, France","id":"st-valry-france","city_id":5331},{"latitude":"-40.760420","longitude":"145.294053","name":"Stanley, Australia","id":"stanley-australia","city_id":7861},{"latitude":"59.822735","longitude":"18.764621","name":"Stavsnas, Sweden","id":"stavsnas-sweden","city_id":5952},{"latitude":"59.332208","longitude":"18.062864","name":"Stockholm, Sweden","id":"stockholm-sweden","city_id":3063},{"latitude":"29.972261","longitude":"32.530142","name":"Suez, Egypt","id":"suez-egypt","city_id":5825},{"latitude":"15.151858","longitude":"145.699522","name":"Sugar Dock, Saipan","id":"sugar-dock-saipan","city_id":16550},{"latitude":"-8.496959","longitude":"117.401000","name":"Sumbawa Besar, Indonesia","id":"sumbawa-besar-indonesia","city_id":14649},{"latitude":"-0.067080","longitude":"109.183231","name":"Sungai Kakap, Indonesia","id":"sungai-kakap-indonesia","city_id":9094},{"latitude":"-7.258581","longitude":"112.746706","name":"Surabaya, Indonesia","id":"surabaya-indonesia","city_id":7802},{"latitude":"49.283287","longitude":"-1.650017","name":"Surville, France","id":"surville-france","city_id":10378},{"latitude":"-18.123810","longitude":"178.437397","name":"Suva, Fiji","id":"suva-fiji","city_id":4268},{"latitude":"56.028303","longitude":"21.082394","name":"Sventoji, Lithuania","id":"sventoji-lithuania","city_id":5311},{"latitude":"-22.678300","longitude":"14.528100","name":"Swakopmund, Namibia","id":"swakopmund-namibia","city_id":9845},{"latitude":"-33.869896","longitude":"151.206941","name":"Sydney, Australia","id":"sydney-australia","city_id":3030},{"latitude":"54.898519","longitude":"8.383376","name":"Sylt, Germany","id":"sylt-germany","city_id":3142},{"latitude":"-18.716681","longitude":"-39.859130","name":"São Mateus, Brazil","id":"so-mateus-brazil","city_id":5506},{"latitude":"29.492574","longitude":"34.894887","name":"Taba, Egypt","id":"taba-egypt","city_id":10498},{"latitude":"14.958792","longitude":"145.629209","name":"Tachognya Beach, Tinian, Northern Mariana Islands","id":"tachognya-beach-tinian-northern-mariana-islands","city_id":16552},{"latitude":"22.156151","longitude":"113.561061","name":"Taipa, China","id":"taipa-china","city_id":5900},{"latitude":"-36.787961","longitude":"174.767867","name":"Takapuna, New Zealand","id":"takapuna-new-zealand","city_id":5918},{"latitude":"59.436212","longitude":"24.752412","name":"Tallinn, Estonia","id":"tallinn-estonia","city_id":3089},{"latitude":"1.327255","longitude":"103.946612","name":"Tanah Merah, Singapore","id":"tanah-merah-singapore","city_id":9135},{"latitude":"13.549124","longitude":"144.809288","name":"Tanguisson Point, Guam","id":"tanguisson-point-guam","city_id":3251},{"latitude":"1.173154","longitude":"104.133135","name":"Tanjung Bemban, Indonesia","id":"tanjung-bemban-indonesia","city_id":9096},{"latitude":"-5.981238","longitude":"107.120927","name":"Tanjung Pakis, Indonesia","id":"tanjung-pakis-indonesia","city_id":9095},