[{"search_name":"6NGIX (Seoul, Korea, Rep.)","latitude":"37.567988","longitude":"126.979291","slug_name":"6ngix-seoul-korea-rep-","building_id":8023},{"search_name":"AAIX (Klagenfurt, Austria)","latitude":"46.6210738","longitude":"14.3102605","slug_name":"aaix-klagenfurt-austria","building_id":18633},{"search_name":"AAIX (Klagenfurt, Austria)","latitude":"46.6176375","longitude":"14.3157539","slug_name":"aaix-klagenfurt-austria","building_id":18635},{"search_name":"ADN-IX (Valence, France)","latitude":"44.9882687","longitude":"4.975784","slug_name":"adn-ix-valence-france","building_id":18891},{"search_name":"AIXP (Arusha, Tanzania)","latitude":"-3.368072","longitude":"36.696569","slug_name":"aixp-arusha-tanzania","building_id":18864},{"search_name":"AIXP (Port-au-Prince, Haiti)","latitude":"18.507752","longitude":"-72.316475","slug_name":"aixp-port-au-prince-haiti","building_id":19287},{"search_name":"ALB-IX (Tirane, Albania)","latitude":"41.327400","longitude":"19.818600","slug_name":"alb-ix-tirane-albania","building_id":18845},{"search_name":"AMPATH (Miami, United States)","latitude":"25.78262624","longitude":"-80.193069234","slug_name":"ampath-miami-united-states","building_id":8145},{"search_name":"AMS-IX (Amsterdam, Netherlands)","latitude":"52.3910917","longitude":"4.6653135","slug_name":"ams-ix-amsterdam-netherlands","building_id":16923},{"search_name":"AMS-IX (Amsterdam, Netherlands)","latitude":"52.3223081","longitude":"4.8017593","slug_name":"ams-ix-amsterdam-netherlands","building_id":18086},{"search_name":"AMS-IX (Amsterdam, Netherlands)","latitude":"52.336524","longitude":"4.931893","slug_name":"ams-ix-amsterdam-netherlands","building_id":18361},{"search_name":"AMS-IX (Amsterdam, Netherlands)","latitude":"52.3439822","longitude":"4.8287104","slug_name":"ams-ix-amsterdam-netherlands","building_id":8712},{"search_name":"AMS-IX (Amsterdam, Netherlands)","latitude":"52.3030807","longitude":"4.9378862","slug_name":"ams-ix-amsterdam-netherlands","building_id":8129},{"search_name":"AMS-IX (Amsterdam, Netherlands)","latitude":"52.3329076","longitude":"4.919533","slug_name":"ams-ix-amsterdam-netherlands","building_id":14830},{"search_name":"AMS-IX (Amsterdam, Netherlands)","latitude":"52.2946484","longitude":"4.945349","slug_name":"ams-ix-amsterdam-netherlands","building_id":18718},{"search_name":"AMS-IX (Amsterdam, Netherlands)","latitude":"52.356359","longitude":"4.950787","slug_name":"ams-ix-amsterdam-netherlands","building_id":18365},{"search_name":"AMS-IX (Amsterdam, Netherlands)","latitude":"52.356671","longitude":"4.952501","slug_name":"ams-ix-amsterdam-netherlands","building_id":18363},{"search_name":"AMS-IX (Amsterdam, Netherlands)","latitude":"52.3544486","longitude":"4.954004","slug_name":"ams-ix-amsterdam-netherlands","building_id":18796},{"search_name":"AMS-IX (Amsterdam, Netherlands)","latitude":"52.2803455","longitude":"4.7537924","slug_name":"ams-ix-amsterdam-netherlands","building_id":17835},{"search_name":"AMS-IX Bay Area (San Francisco, United States)","latitude":"37.72436111007209","longitude":"-122.3976194858551","slug_name":"ams-ix-bay-area-san-francisco-united-states","building_id":8558},{"search_name":"AMS-IX Bay Area (San Francisco, United States)","latitude":"37.788478631","longitude":"-122.390601829","slug_name":"ams-ix-bay-area-san-francisco-united-states","building_id":8796},{"search_name":"AMS-IX Caribbean (Willemstad, Netherlands Antilles)","latitude":"12.096547712862016","longitude":"-68.90788614749908","slug_name":"ams-ix-caribbean-willemstad-netherlands-antilles","building_id":18676},{"search_name":"AMS-IX Chicago (Chicago, United States)","latitude":"41.878133725","longitude":"-87.632281186","slug_name":"ams-ix-chicago-chicago-united-states","building_id":9544},{"search_name":"AMS-IX Hong Kong (Hong Kong, China)","latitude":"22.26645","longitude":"114.246513","slug_name":"ams-ix-hong-kong-hong-kong-china","building_id":8327},{"search_name":"AMS-IX New York (New York, United States)","latitude":"40.556905","longitude":"-74.484735","slug_name":"ams-ix-new-york-new-york-united-states","building_id":18222},{"search_name":"AMS-IX New York (New York, United States)","latitude":"40.740957","longitude":"-74.002119","slug_name":"ams-ix-new-york-new-york-united-states","building_id":20196},{"search_name":"AMS-IX New York (New York, United States)","latitude":"40.7268533","longitude":"-74.0074254","slug_name":"ams-ix-new-york-new-york-united-states","building_id":8704},{"search_name":"AMS-IX New York (New York, United States)","latitude":"40.710644124","longitude":"-74.001150688","slug_name":"ams-ix-new-york-new-york-united-states","building_id":9515},{"search_name":"ANG-IXP (Luanda, Angola)","latitude":"-8.817601","longitude":"13.227940","slug_name":"ang-ixp-luanda-angola","building_id":20179},{"search_name":"Angonix (Luanda, Angola)","latitude":"-8.895126","longitude":"13.227813","slug_name":"angonix-luanda-angola","building_id":20134},{"search_name":"APE (Auckland, New Zealand)","latitude":"-36.8476684","longitude":"174.7630597","slug_name":"ape-auckland-new-zealand","building_id":19202},{"search_name":"APE (Auckland, New Zealand)","latitude":"-36.849346","longitude":"174.765412","slug_name":"ape-auckland-new-zealand","building_id":18998},{"search_name":"APIX (Hong Kong, China)","latitude":"22.28066","longitude":"114.167146","slug_name":"apix-hong-kong-china","building_id":15154},{"search_name":"AuvernIX (Clermont Ferrand, France)","latitude":"45.762939","longitude":"3.172693","slug_name":"auvernix-clermont-ferrand-france","building_id":20605},{"search_name":"AuvernIX (Clermont Ferrand, France)","latitude":"45.740703","longitude":"3.172693","slug_name":"auvernix-clermont-ferrand-france","building_id":20606},{"search_name":"AuvernIX (Clermont Ferrand, France)","latitude":"45.799353","longitude":"3.142428","slug_name":"auvernix-clermont-ferrand-france","building_id":20604},{"search_name":"AZIX (Phoenix, United States)","latitude":"33.454411","longitude":"-111.976435","slug_name":"azix-phoenix-united-states","building_id":17877},{"search_name":"B-IX (Bucharest, Romania)","latitude":"44.4806504","longitude":"26.1152744","slug_name":"b-ix-bucharest-romania","building_id":18651},{"search_name":"B-IX (Sofia, Bulgaria)","latitude":"42.632822","longitude":"23.334258","slug_name":"b-ix-sofia-bulgaria","building_id":18660},{"search_name":"B-IX (Sofia, Bulgaria)","latitude":"42.7026051","longitude":"23.3059837","slug_name":"b-ix-sofia-bulgaria","building_id":18654},{"search_name":"B-IX (Sofia, Bulgaria)","latitude":"42.65559011191808","longitude":"23.391501903533936","slug_name":"b-ix-sofia-bulgaria","building_id":18656},{"search_name":"B-IX (Sofia, Bulgaria)","latitude":"42.625932","longitude":"23.376693","slug_name":"b-ix-sofia-bulgaria","building_id":18055},{"search_name":"B-IX (Svilengrad, Bulgaria)","latitude":"41.7200805552871","longitude":"26.323928833007812","slug_name":"b-ix-svilengrad-bulgaria","building_id":18661},{"search_name":"Balcan-IX (Bacau, Romania)","latitude":"46.5678155","longitude":" 26.9112897","slug_name":"balcan-ix-bacau-romania","building_id":18641},{"search_name":"Balcan-IX (Bucharest, Romania)","latitude":"44.432500","longitude":"26.103889","slug_name":"balcan-ix-bucharest-romania","building_id":16751},{"search_name":"Balcan-IX (Bucharest, Romania)","latitude":"44.446863425970285","longitude":"26.10797882080078","slug_name":"balcan-ix-bucharest-romania","building_id":18643},{"search_name":"Balcan-IX (Bucharest, Romania)","latitude":"44.4806504","longitude":"26.1152744","slug_name":"balcan-ix-bucharest-romania","building_id":18651},{"search_name":"Balcan-IX (Bucharest, Romania)","latitude":"44.4134147","longitude":"26.1128331","slug_name":"balcan-ix-bucharest-romania","building_id":18646},{"search_name":"Balcan-IX (Cluj Napoca, Romania)","latitude":"46.7724682","longitude":"23.5873964","slug_name":"balcan-ix-cluj-napoca-romania","building_id":18642},{"search_name":"Balcan-IX (Constanta, Romania)","latitude":"44.1838495","longitude":"28.6326799","slug_name":"balcan-ix-constanta-romania","building_id":18647},{"search_name":"Balcan-IX (Galati, Romania)","latitude":"45.433552670619825","longitude":"28.051400184631348","slug_name":"balcan-ix-galati-romania","building_id":18640},{"search_name":"Balcan-IX (Iasi, Romania)","latitude":"47.1679427","longitude":"27.5782642","slug_name":"balcan-ix-iasi-romania","building_id":18644},{"search_name":"Balcan-IX (Oradea, Romania)","latitude":"47.0653955","longitude":"21.9370647","slug_name":"balcan-ix-oradea-romania","building_id":18645},{"search_name":"Balcan-IX (Timisoara, Romania)","latitude":"45.733679","longitude":"21.2373217","slug_name":"balcan-ix-timisoara-romania","building_id":18650},{"search_name":"BARIX (Bridgetown, Barbados)","latitude":"13.092090","longitude":"-59.611938","slug_name":"barix-bridgetown-barbados","building_id":20474},{"search_name":"BBIX (Fukuoka, Japan)","latitude":"33.5818168","longitude":"130.3257601","slug_name":"bbix-fukuoka-japan","building_id":16550},{"search_name":"BBIX (Nagoya, Japan)","latitude":"35.1684839","longitude":"136.8937355","slug_name":"bbix-nagoya-japan","building_id":8900},{"search_name":"BBIX (Okinawa, Japan)","latitude":"26.2703891","longitude":"127.7180781","slug_name":"bbix-okinawa-japan","building_id":16906},{"search_name":"BBIX (Osaka, Japan)","latitude":"34.696622","longitude":"135.498919","slug_name":"bbix-osaka-japan","building_id":8919},{"search_name":"BBIX (Tokyo, Japan)","latitude":"35.6831213","longitude":"139.7745775","slug_name":"bbix-tokyo-japan","building_id":8695},{"search_name":"BBIX (Tokyo, Japan)","latitude":"35.687421","longitude":"139.765370","slug_name":"bbix-tokyo-japan","building_id":19267},{"search_name":"BBIX (Tokyo, Japan)","latitude":"35.6221001","longitude":"139.7499841","slug_name":"bbix-tokyo-japan","building_id":15291},{"search_name":"BBIX (Tokyo, Japan)","latitude":"35.6854153","longitude":"139.7676668","slug_name":"bbix-tokyo-japan","building_id":8913},{"search_name":"BBIX SEA (Hong Kong, China)","latitude":"22.266098","longitude":"114.246512","slug_name":"bbix-sea-hong-kong-china","building_id":15204},{"search_name":"BBIX SEA (Singapore, Singapore)","latitude":"1.29513","longitude":"103.790313","slug_name":"bbix-sea-singapore-singapore","building_id":14997},{"search_name":"BCIX (Berlin, Germany)","latitude":"52.465789","longitude":"13.370104","slug_name":"bcix-berlin-germany","building_id":8836},{"search_name":"BCIX (Berlin, Germany)","latitude":"52.4524842","longitude":"13.4289027","slug_name":"bcix-berlin-germany","building_id":8930},{"search_name":"BCIX (Berlin, Germany)","latitude":"52.50202","longitude":"13.36934","slug_name":"bcix-berlin-germany","building_id":8724},{"search_name":"BCIX (Berlin, Germany)","latitude":"52.5384787","longitude":"13.237136","slug_name":"bcix-berlin-germany","building_id":18279},{"search_name":"BDIX (Dhaka, Bangladesh)","latitude":"23.75095916816623","longitude":"90.38681745529175","slug_name":"bdix-dhaka-bangladesh","building_id":15319},{"search_name":"Beirut-IX (Beirut, Lebanon)","latitude":"33.869239666470044","longitude":"35.54257392883301","slug_name":"beirut-ix-beirut-lebanon","building_id":17168},{"search_name":"Benin-IX (Cotonou, Benin)","latitude":"6.354474","longitude":"2.436143","slug_name":"benin-ix-cotonou-benin","building_id":19635},{"search_name":"BFIX (Ouagadougou, Burkina Faso)","latitude":"12.372606","longitude":"-1.513981","slug_name":"bfix-ouagadougou-burkina-faso","building_id":19645},{"search_name":"Big APE (New York, United States)","latitude":"40.740957","longitude":"-74.002119","slug_name":"big-ape-new-york-united-states","building_id":20196},{"search_name":"Big APE (New York, United States)","latitude":"40.720000","longitude":"-74.004561","slug_name":"big-ape-new-york-united-states","building_id":20197},{"search_name":"Big APE (New York, United States)","latitude":"40.7268533","longitude":"-74.0074254","slug_name":"big-ape-new-york-united-states","building_id":8704},{"search_name":"Big APE (New York, United States)","latitude":"40.717664","longitude":"-74.008333","slug_name":"big-ape-new-york-united-states","building_id":20198},{"search_name":"BINX (Gabarone, Botswana)","latitude":"-22.344025","longitude":"24.680156","slug_name":"binx-gabarone-botswana","building_id":18816},{"search_name":"BIX (Bergen, Norway)","latitude":"60.391263","longitude":"5.322054","slug_name":"bix-bergen-norway","building_id":20577},{"search_name":"BIX (Budapest, Hungary)","latitude":"47.493275","longitude":"19.102322","slug_name":"bix-budapest-hungary","building_id":16408},{"search_name":"BIX (Budapest, Hungary)","latitude":"47.4858775","longitude":"19.1790353","slug_name":"bix-budapest-hungary","building_id":18638},{"search_name":"BIX (Budapest, Hungary)","latitude":"47.5180908","longitude":"19.0562728","slug_name":"bix-budapest-hungary","building_id":8054},{"search_name":"BIX (Jakarta, Indonesia)","latitude":"-6.21468185885899","longitude":"106.82199418544769","slug_name":"bix-jakarta-indonesia","building_id":16469},{"search_name":"BIX (Jakarta, Indonesia)","latitude":"-6.238812644356604","longitude":"106.82367324829102","slug_name":"bix-jakarta-indonesia","building_id":8771},{"search_name":"BIX (Manama, Bahrain)","latitude":"26.216667","longitude":"50.583333","slug_name":"bix-manama-bahrain","building_id":16905},{"search_name":"BIX.BG (Sofia, Bulgaria)","latitude":"42.672615297065846","longitude":"23.360248804092407","slug_name":"bix-bg-sofia-bulgaria","building_id":18675},{"search_name":"BIXP (Belize City, Belize)","latitude":"17.511900","longitude":"-88.201222","slug_name":"bixp-belize-city-belize","building_id":20471},{"search_name":"BKNIX (Bangkok, Thailand)","latitude":"14.065565","longitude":"100.616847","slug_name":"bknix-bangkok-thailand","building_id":20187},{"search_name":"BNIIX (Buffalo, United States)","latitude":"42.884423","longitude":"-78.875452","slug_name":"bniix-buffalo-united-states","building_id":14676},{"search_name":"BNIX (Brussels, Belgium)","latitude":"50.8666667","longitude":"4.4","slug_name":"bnix-brussels-belgium","building_id":8037},{"search_name":"BNIX (Brussels, Belgium)","latitude":"50.8871675","longitude":"4.4558729","slug_name":"bnix-brussels-belgium","building_id":10298},{"search_name":"BNIX (Brussels, Belgium)","latitude":"50.8263526","longitude":"4.5008733","slug_name":"bnix-brussels-belgium","building_id":8036},{"search_name":"BOSIX (Boston, United States)","latitude":"42.3544921","longitude":"-71.0595237","slug_name":"bosix-boston-united-states","building_id":10544},{"search_name":"BREM-IX (Bremen, Germany)","latitude":"53.0792962","longitude":"8.8016937","slug_name":"brem-ix-bremen-germany","building_id":14707},{"search_name":"BREM-IX (Bremen, Germany)","latitude":"53.076941","longitude":"8.773737","slug_name":"brem-ix-bremen-germany","building_id":17427},{"search_name":"BREM-IX (Bremen, Germany)","latitude":"53.110092","longitude":"8.766939","slug_name":"brem-ix-bremen-germany","building_id":20180},{"search_name":"BurundiX (Bujumbura, Burundi)","latitude":"-3.372490","longitude":"29.356070","slug_name":"burundix-bujumbura-burundi","building_id":20130},{"search_name":"BVIX (Roadtown, Virgin Islands (U.K.))","latitude":"18.426997","longitude":"-64.620762","slug_name":"bvix-roadtown-virgin-islands-u-k-","building_id":19289},{"search_name":"BYIX (Minsk, Belarus)","latitude":"53.902555","longitude":"27.563100","slug_name":"byix-minsk-belarus","building_id":18819},{"search_name":"C2IX (Jakarta, Indonesia)","latitude":"-6.227182","longitude":"106.833337","slug_name":"c2ix-jakarta-indonesia","building_id":19345},{"search_name":"CABASE IXP (Bah\u00eda Blanca, Argentina)","latitude":"-38.719554","longitude":"-62.267879","slug_name":"cabase-ixp-baha-blanca-argentina","building_id":20166},{"search_name":"CABASE IXP (Bariloche, Argentina)","latitude":"-41.133472","longitude":"-71.310278","slug_name":"cabase-ixp-bariloche-argentina","building_id":20171},{"search_name":"CABASE IXP (Buenos Aires, Argentina)","latitude":"-34.608521","longitude":"-58.373539","slug_name":"cabase-ixp-buenos-aires-argentina","building_id":8883},{"search_name":"CABASE IXP (Buenos Aires, Argentina)","latitude":"-34.588550","longitude":"-60.949554","slug_name":"cabase-ixp-buenos-aires-argentina","building_id":20174},{"search_name":"CABASE IXP (Buenos Aires, Argentina)","latitude":"-34.6068469","longitude":"-58.3792938","slug_name":"cabase-ixp-buenos-aires-argentina","building_id":8108},{"search_name":"CABASE IXP (C\u00f3rdoba, Argentina)","latitude":"-31.407181","longitude":"-64.185679","slug_name":"cabase-ixp-crdoba-argentina","building_id":20167},{"search_name":"CABASE IXP (Jujuy, Argentina)","latitude":"-24.185786","longitude":"-65.299477","slug_name":"cabase-ixp-jujuy-argentina","building_id":20177},{"search_name":"CABASE IXP (La Plata, Argentina)","latitude":"-34.913889","longitude":"-57.946329","slug_name":"cabase-ixp-la-plata-argentina","building_id":20168},{"search_name":"CABASE IXP (Mar del Plata, Argentina)","latitude":"-37.919460","longitude":"-57.535011","slug_name":"cabase-ixp-mar-del-plata-argentina","building_id":20170},{"search_name":"CABASE IXP (Mendoza, Argentina)","latitude":"-32.891229","longitude":"-68.839554","slug_name":"cabase-ixp-mendoza-argentina","building_id":20164},{"search_name":"CABASE IXP (Neuqu\u00e9n, Argentina)","latitude":"-38.951260","longitude":"-68.060760","slug_name":"cabase-ixp-neuqun-argentina","building_id":20161},{"search_name":"CABASE IXP (Partido de la Costa, Argentina)","latitude":"-36.737612","longitude":"-56.685059","slug_name":"cabase-ixp-partido-de-la-costa-argentina","building_id":20165},{"search_name":"CABASE IXP (Pergamino, Argentina)","latitude":"-33.894164","longitude":"-60.569924","slug_name":"cabase-ixp-pergamino-argentina","building_id":20175},{"search_name":"CABASE IXP (Pilar, Argentina)","latitude":"-34.459344","longitude":"-58.915304","slug_name":"cabase-ixp-pilar-argentina","building_id":20178},{"search_name":"CABASE IXP (Posadas, Argentina)","latitude":"-27.366519","longitude":"-55.892454","slug_name":"cabase-ixp-posadas-argentina","building_id":20169},{"search_name":"CABASE IXP (Puerto Madryn, Argentina)","latitude":"-42.769448","longitude":"-65.031718","slug_name":"cabase-ixp-puerto-madryn-argentina","building_id":20172},{"search_name":"CABASE IXP (Rosario, Argentina)","latitude":"-32.967799","longitude":"-60.659239","slug_name":"cabase-ixp-rosario-argentina","building_id":20162},{"search_name":"CABASE IXP (San Luis, Argentina)","latitude":"-33.302144","longitude":"-66.337609","slug_name":"cabase-ixp-san-luis-argentina","building_id":20173},{"search_name":"CABASE IXP (San Miguel de Tucuman, Argentina)","latitude":"-26.808285","longitude":"-65.217590","slug_name":"cabase-ixp-san-miguel-de-tucuman-argentina","building_id":20176},{"search_name":"CABASE IXP (Santa Fe, Argentina)","latitude":"-31.636664","longitude":"-60.711999","slug_name":"cabase-ixp-santa-fe-argentina","building_id":20163},{"search_name":"CAIX (Cairo, Egypt)","latitude":"30.066976","longitude":"31.261286","slug_name":"caix-cairo-egypt","building_id":19208},{"search_name":"CAT-NIX (Bangkok, Thailand)","latitude":"13.753330","longitude":"100.504822","slug_name":"cat-nix-bangkok-thailand","building_id":8795},{"search_name":"CATNIX (Barcelona, Spain)","latitude":"41.3517595","longitude":"2.1369324","slug_name":"catnix-barcelona-spain","building_id":8255},{"search_name":"CATNIX (Barcelona, Spain)","latitude":"41.387157","longitude":"2.111198","slug_name":"catnix-barcelona-spain","building_id":8156},{"search_name":"CBIX (Brno, Czech Republic)","latitude":"49.196817","longitude":"16.6187636","slug_name":"cbix-brno-czech-republic","building_id":18546},{"search_name":"CGIX (Brazzaville, Congo, Rep.)","latitude":"-4.275569","longitude":"15.273096","slug_name":"cgix-brazzaville-congo-rep-","building_id":20121},{"search_name":"CHIX (Christchurch, New Zealand)","latitude":"-43.5305327","longitude":"172.5990636","slug_name":"chix-christchurch-new-zealand","building_id":18847},{"search_name":"CI-IXP (Abidjan, C\u00f4te d'Ivoire)","latitude":"5.3398375134050635","longitude":"-4.004795551300049","slug_name":"ci-ixp-abidjan-cte-divoire","building_id":18681},{"search_name":"CIIX (Los Angeles, United States)","latitude":"34.047966","longitude":"-118.25557","slug_name":"ciix-los-angeles-united-states","building_id":9023},{"search_name":"CINX (Cape Town, South Africa)","latitude":"-33.9187995","longitude":"18.4204666","slug_name":"cinx-cape-town-south-africa","building_id":18131},{"search_name":"CIX (Cork, Ireland)","latitude":"51.903826","longitude":"-8.511962","slug_name":"cix-cork-ireland","building_id":19497},{"search_name":"CIX (Zagreb, Croatia)","latitude":"45.8028915","longitude":"15.9433892","slug_name":"cix-zagreb-croatia","building_id":18527},{"search_name":"CIX (Zagreb, Croatia)","latitude":"45.7924573","longitude":"15.9694066","slug_name":"cix-zagreb-croatia","building_id":8039},{"search_name":"CIXP (Geneva, Switzerland)","latitude":"46.233008","longitude":"6.055591","slug_name":"cixp-geneva-switzerland","building_id":8116},{"search_name":"CIXP (Geneva, Switzerland)","latitude":"46.203391","longitude":"6.144675","slug_name":"cixp-geneva-switzerland","building_id":8720},{"search_name":"CNIX (Cork, Ireland)","latitude":"51.903632666512266","longitude":"-8.512698411941528","slug_name":"cnix-cork-ireland","building_id":18677},{"search_name":"CNX (Phnom Penh, Cambodia)","latitude":"11.557899","longitude":"104.920528","slug_name":"cnx-phnom-penh-cambodia","building_id":20144},{"search_name":"CNX (Phnom Penh, Cambodia)","latitude":"11.564379","longitude":"104.899243","slug_name":"cnx-phnom-penh-cambodia","building_id":20145},{"search_name":"CNX (Phnom Penh, Cambodia)","latitude":"11.544972","longitude":"104.937135","slug_name":"cnx-phnom-penh-cambodia","building_id":20581},{"search_name":"COIX (Bend, United States)","latitude":"44.050649","longitude":"-121.330622","slug_name":"coix-bend-united-states","building_id":19644},{"search_name":"COPHIX (Copenhagen, Denmark)","latitude":"55.7284884","longitude":"12.3761805","slug_name":"cophix-copenhagen-denmark","building_id":8273},{"search_name":"COPHIX (Copenhagen, Denmark)","latitude":"55.661921","longitude":"12.377342","slug_name":"cophix-copenhagen-denmark","building_id":8691},{"search_name":"CORE (Manila, Philippines)","latitude":"14.5515802","longitude":"121.0182828","slug_name":"core-manila-philippines","building_id":8029},{"search_name":"CoreSite Any2 Boston (Boston, United States)","latitude":"42.378001","longitude":"-71.080879","slug_name":"coresite-any2-boston-boston-united-states","building_id":14995},{"search_name":"CoreSite Any2 Chicago (Chicago, United States)","latitude":"41.876632803","longitude":"-87.63174155","slug_name":"coresite-any2-chicago-chicago-united-states","building_id":8264},{"search_name":"CoreSite Any2 Denver (Denver, United States)","latitude":"39.74572161117953","longitude":" -104.99559760093689","slug_name":"coresite-any2-denver-denver-united-states","building_id":8310},{"search_name":"CoreSite Any2 LA (Los Angeles, United States)","latitude":"34.047966","longitude":"-118.25557","slug_name":"coresite-any2-la-los-angeles-united-states","building_id":9023},{"search_name":"CoreSite Any2 LA (Los Angeles, United States)","latitude":"34.058723","longitude":"-118.235299","slug_name":"coresite-any2-la-los-angeles-united-states","building_id":14406},{"search_name":"CoreSite Any2 Miami (Miami, United States)","latitude":"25.7974277","longitude":" -80.2302988","slug_name":"coresite-any2-miami-miami-united-states","building_id":11449},{"search_name":"CoreSite Any2 Milipitas (San Francisco, United States)","latitude":"37.4049936","longitude":"-121.9168808","slug_name":"coresite-any2-milipitas-san-francisco-united-states","building_id":16945},{"search_name":"CoreSite Any2 New York (New York, United States)","latitude":"40.720000","longitude":"-74.004561","slug_name":"coresite-any2-new-york-new-york-united-states","building_id":20197},{"search_name":"CoreSite Any2 Reston (Washington, United States)","latitude":"38.9507382","longitude":"-77.3639041","slug_name":"coresite-any2-reston-washington-united-states","building_id":9624},{"search_name":"CoreSite Any2 San Jose (San Francisco, United States)","latitude":"37.3343915","longitude":" -121.8913956","slug_name":"coresite-any2-san-jose-san-francisco-united-states","building_id":8572},{"search_name":"CoreSite Any2 Santa Clara (San Francisco, United States)","latitude":"37.376468","longitude":"-121.970447","slug_name":"coresite-any2-santa-clara-san-francisco-united-states","building_id":18786},{"search_name":"CoreSite Any2 Washington (Washington, United States)","latitude":"38.90252","longitude":"-77.029143","slug_name":"coresite-any2-washington-washington-united-states","building_id":8973},{"search_name":"Crimea-IX (Simferopol, Ukraine)","latitude":"44.959845","longitude":"34.108565","slug_name":"crimea-ix-simferopol-ukraine","building_id":18820},{"search_name":"CYIX (Nicosia, Cyprus)","latitude":"35.151956","longitude":"33.373534","slug_name":"cyix-nicosia-cyprus","building_id":8040},{"search_name":"CyrusOne Texas IX (Dallas, United States)","latitude":"32.992076","longitude":"-96.930441","slug_name":"cyrusone-texas-ix-dallas-united-states","building_id":18956},{"search_name":"CyrusOne Texas IX (Dallas, United States)","latitude":"32.786964","longitude":"-96.7942267","slug_name":"cyrusone-texas-ix-dallas-united-states","building_id":8189},{"search_name":"CyrusOne Texas IX (Dallas, United States)","latitude":"33.0543303","longitude":"-96.9151887","slug_name":"cyrusone-texas-ix-dallas-united-states","building_id":18468},{"search_name":"CyrusOne Texas IX (Houston, United States)","latitude":"29.944481","longitude":"-95.415504","slug_name":"cyrusone-texas-ix-houston-united-states","building_id":19084},{"search_name":"CyrusOne Texas IX (Houston, United States)","latitude":"29.728147","longitude":"-95.444937","slug_name":"cyrusone-texas-ix-houston-united-states","building_id":17861},{"search_name":"CyrusOne Texas IX (Houston, United States)","latitude":"29.8434637","longitude":"-95.5573869","slug_name":"cyrusone-texas-ix-houston-united-states","building_id":18467},{"search_name":"CyrusOne Texas IX (Phoenix, United States)","latitude":"33.270448","longitude":"-111.882105","slug_name":"cyrusone-texas-ix-phoenix-united-states","building_id":18958},{"search_name":"CyrusOne Texas IX (San Antonio, United States)","latitude":"29.466508","longitude":"-98.688287","slug_name":"cyrusone-texas-ix-san-antonio-united-states","building_id":18957},{"search_name":"DANIX (Roseau, Dominica)","latitude":"15.299781","longitude":"-61.384364","slug_name":"danix-roseau-dominica","building_id":19288},{"search_name":"DE-CIX (Frankfurt, Germany)","latitude":"50.12815","longitude":"8.60097","slug_name":"de-cix-frankfurt-germany","building_id":15059},{"search_name":"DE-CIX (Frankfurt, Germany)","latitude":"50.0966084","longitude":"8.6434499","slug_name":"de-cix-frankfurt-germany","building_id":8321},{"search_name":"DE-CIX (Frankfurt, Germany)","latitude":"50.11964","longitude":"8.73469","slug_name":"de-cix-frankfurt-germany","building_id":15612},{"search_name":"DE-CIX (Frankfurt, Germany)","latitude":"50.12003","longitude":"8.73527","slug_name":"de-cix-frankfurt-germany","building_id":18504},{"search_name":"DE-CIX (Frankfurt, Germany)","latitude":"50.12007","longitude":"8.73561","slug_name":"de-cix-frankfurt-germany","building_id":10277},{"search_name":"DE-CIX (Frankfurt, Germany)","latitude":"50.12046","longitude":"8.73699","slug_name":"de-cix-frankfurt-germany","building_id":18503},{"search_name":"DE-CIX (Frankfurt, Germany)","latitude":"50.0961269","longitude":"8.6283927","slug_name":"de-cix-frankfurt-germany","building_id":9037},{"search_name":"DE-CIX (Frankfurt, Germany)","latitude":"50.1003","longitude":"8.63461","slug_name":"de-cix-frankfurt-germany","building_id":10239},{"search_name":"DE-CIX (Frankfurt, Germany)","latitude":"50.098670","longitude":"8.632260","slug_name":"de-cix-frankfurt-germany","building_id":20125},{"search_name":"DE-CIX (Frankfurt, Germany)","latitude":"50.09776","longitude":"8.62984","slug_name":"de-cix-frankfurt-germany","building_id":18327},{"search_name":"DE-CIX (Frankfurt, Germany)","latitude":"50.1426685","longitude":"8.7404233","slug_name":"de-cix-frankfurt-germany","building_id":9697},{"search_name":"DE-CIX (Frankfurt, Germany)","latitude":"50.09669","longitude":"8.58843","slug_name":"de-cix-frankfurt-germany","building_id":18232},{"search_name":"DE-CIX (Frankfurt, Germany)","latitude":"50.0986011","longitude":"8.632815","slug_name":"de-cix-frankfurt-germany","building_id":8697},{"search_name":"DE-CIX (Frankfurt, Germany)","latitude":"50.11893","longitude":"8.73518","slug_name":"de-cix-frankfurt-germany","building_id":12484},{"search_name":"DE-CIX (Frankfurt, Germany)","latitude":"50.119019","longitude":"8.7362391","slug_name":"de-cix-frankfurt-germany","building_id":9036},{"search_name":"DE-CIX Dallas (Dallas, United States)","latitude":"32.80098325000927","longitude":"-96.81972026824951","slug_name":"de-cix-dallas-dallas-united-states","building_id":8286},{"search_name":"DE-CIX Hamburg (Hamburg, Germany)","latitude":"53.5508722","longitude":"10.0470258","slug_name":"de-cix-hamburg-hamburg-germany","building_id":8811},{"search_name":"DE-CIX Istanbul (Istanbul, Turkey)","latitude":"41.070820","longitude":"29.015320","slug_name":"de-cix-istanbul-istanbul-turkey","building_id":19182},{"search_name":"DE-CIX Istanbul (Istanbul, Turkey)","latitude":"40.993684","longitude":"28.829536","slug_name":"de-cix-istanbul-istanbul-turkey","building_id":18202},{"search_name":"DE-CIX Istanbul (Istanbul, Turkey)","latitude":"40.993684","longitude":"28.829536","slug_name":"de-cix-istanbul-istanbul-turkey","building_id":20570},{"search_name":"DE-CIX Istanbul (Istanbul, Turkey)","latitude":"40.993684","longitude":"28.829536","slug_name":"de-cix-istanbul-istanbul-turkey","building_id":20571},{"search_name":"DE-CIX Istanbul (Istanbul, Turkey)","latitude":"40.993258","longitude":"29.180475","slug_name":"de-cix-istanbul-istanbul-turkey","building_id":20572},{"search_name":"DE-CIX Madrid (Madrid, Spain)","latitude":"40.4391411","longitude":"-3.6214827","slug_name":"de-cix-madrid-madrid-spain","building_id":9892},{"search_name":"DE-CIX Marseille (Marseille, France)","latitude":"43.3109242","longitude":"5.372926","slug_name":"de-cix-marseille-marseille-france","building_id":8399},{"search_name":"DE-CIX Munich (Munich, Germany)","latitude":"48.1403474","longitude":"11.5256034","slug_name":"de-cix-munich-munich-germany","building_id":8119},{"search_name":"DE-CIX Munich (Munich, Germany)","latitude":"48.14381","longitude":"11.55602","slug_name":"de-cix-munich-munich-germany","building_id":15244},{"search_name":"DE-CIX New York (New York, United States)","latitude":"40.755265","longitude":" -73.5578909","slug_name":"de-cix-new-york-new-york-united-states","building_id":14385},{"search_name":"DE-CIX New York (New York, United States)","latitude":"40.740957","longitude":"-74.002119","slug_name":"de-cix-new-york-new-york-united-states","building_id":20196},{"search_name":"DE-CIX New York (New York, United States)","latitude":"40.736763","longitude":"-74.173364","slug_name":"de-cix-new-york-new-york-united-states","building_id":8494},{"search_name":"DE-CIX New York (New York, United States)","latitude":"40.720000","longitude":"-74.004561","slug_name":"de-cix-new-york-new-york-united-states","building_id":20197},{"search_name":"DE-CIX New York (New York, United States)","latitude":"40.7268533","longitude":"-74.0074254","slug_name":"de-cix-new-york-new-york-united-states","building_id":8704},{"search_name":"DE-CIX New York (New York, United States)","latitude":"40.710644124","longitude":"-74.001150688","slug_name":"de-cix-new-york-new-york-united-states","building_id":9515},{"search_name":"DE-CIX New York (New York, United States)","latitude":"40.717664","longitude":"-74.008333","slug_name":"de-cix-new-york-new-york-united-states","building_id":20198},{"search_name":"DE-CIX New York (New York, United States)","latitude":"40.74307","longitude":"-74.00753","slug_name":"de-cix-new-york-new-york-united-states","building_id":9027},{"search_name":"DE-CIX Palermo (Palermo, Italy)","latitude":"38.158360","longitude":"13.317160","slug_name":"de-cix-palermo-palermo-italy","building_id":20126},{"search_name":"DET-IX (Detroit, United States)","latitude":"42.466646","longitude":"-83.234726","slug_name":"det-ix-detroit-united-states","building_id":19024},{"search_name":"DET-IX (Detroit, United States)","latitude":"42.466875","longitude":"-83.235070","slug_name":"det-ix-detroit-united-states","building_id":20015},{"search_name":"DET-IX (Detroit, United States)","latitude":"42.470305","longitude":"-83.237814","slug_name":"det-ix-detroit-united-states","building_id":17432},{"search_name":"DINX (Durban, South Africa)","latitude":"-29.729996","longitude":"31.067330","slug_name":"dinx-durban-south-africa","building_id":19587},{"search_name":"DINX (Durban, South Africa)","latitude":"-29.7793236","longitude":"30.9924543","slug_name":"dinx-durban-south-africa","building_id":18328},{"search_name":"DIX (Aarhus, Denmark)","latitude":"56.070062","longitude":"9.992591","slug_name":"dix-aarhus-denmark","building_id":19296},{"search_name":"DIX (Copenhagen, Denmark)","latitude":"55.676097","longitude":"12.568337","slug_name":"dix-copenhagen-denmark","building_id":15299},{"search_name":"DIX (Copenhagen, Denmark)","latitude":"55.7284884","longitude":"12.3761805","slug_name":"dix-copenhagen-denmark","building_id":8273},{"search_name":"DIX (Copenhagen, Denmark)","latitude":"55.78438039831354","longitude":"12.519607543945312","slug_name":"dix-copenhagen-denmark","building_id":8041},{"search_name":"DIX-ie (Tokyo, Japan)","latitude":"35.6831213","longitude":"139.7745775","slug_name":"dix-ie-tokyo-japan","building_id":8695},{"search_name":"DIX-ie (Tokyo, Japan)","latitude":"35.6877482","longitude":"139.764603","slug_name":"dix-ie-tokyo-japan","building_id":8131},{"search_name":"DIX-ie (Tokyo, Japan)","latitude":"35.6092261","longitude":"139.7301861","slug_name":"dix-ie-tokyo-japan","building_id":16909},{"search_name":"DIX-ie (Tokyo, Japan)","latitude":"35.6772028","longitude":"139.7823106","slug_name":"dix-ie-tokyo-japan","building_id":16908},{"search_name":"DjIX (Djibouti City, Djibouti)","latitude":"11.590976","longitude":"43.153023","slug_name":"djix-djibouti-city-djibouti","building_id":19615},{"search_name":"DN-IX (Donetsk, Ukraine)","latitude":"48.000950","longitude":"37.805776","slug_name":"dn-ix-donetsk-ukraine","building_id":18848},{"search_name":"DPE (Dunedin, New Zealand)","latitude":"-45.878760","longitude":"170.502798","slug_name":"dpe-dunedin-new-zealand","building_id":20545},{"search_name":"DRFortress (Honolulu, United States)","latitude":"21.3345206","longitude":"-157.9172975","slug_name":"drfortress-honolulu-united-states","building_id":8144},{"search_name":"DTEL-IX (Kiev, Ukraine)","latitude":"50.445102","longitude":"30.510193","slug_name":"dtel-ix-kiev-ukraine","building_id":19392},{"search_name":"DTEL-IX (Kiev, Ukraine)","latitude":"50.43788270676076","longitude":"30.49757480621338","slug_name":"dtel-ix-kiev-ukraine","building_id":18755},{"search_name":"ECIX-BER (Berlin, Germany)","latitude":"52.465789","longitude":"13.370104","slug_name":"ecix-ber-berlin-germany","building_id":8836},{"search_name":"ECIX-BER (Berlin, Germany)","latitude":"52.4524842","longitude":"13.4289027","slug_name":"ecix-ber-berlin-germany","building_id":14677},{"search_name":"ECIX-BER (Berlin, Germany)","latitude":"52.43267","longitude":"13.37372","slug_name":"ecix-ber-berlin-germany","building_id":15238},{"search_name":"ECIX-BER (Berlin, Germany)","latitude":"52.50202","longitude":"13.36934","slug_name":"ecix-ber-berlin-germany","building_id":8724},{"search_name":"ECIX-BER (Berlin, Germany)","latitude":"52.5384787","longitude":"13.237136","slug_name":"ecix-ber-berlin-germany","building_id":18279},{"search_name":"ECIX-DUS (D\u00fcsseldorf, Germany)","latitude":"51.219317","longitude":"6.806631","slug_name":"ecix-dus-dsseldorf-germany","building_id":8319},{"search_name":"ECIX-DUS (D\u00fcsseldorf, Germany)","latitude":"51.26721","longitude":"6.8174","slug_name":"ecix-dus-dsseldorf-germany","building_id":15051},{"search_name":"ECIX-DUS (D\u00fcsseldorf, Germany)","latitude":"51.18827","longitude":"6.86722","slug_name":"ecix-dus-dsseldorf-germany","building_id":15576},{"search_name":"ECIX-DUS (D\u00fcsseldorf, Germany)","latitude":"51.18819","longitude":"6.86728","slug_name":"ecix-dus-dsseldorf-germany","building_id":14678},{"search_name":"ECIX-FRA (D\u00fcsseldorf, Germany)","latitude":"51.25902","longitude":"6.79893","slug_name":"ecix-fra-dsseldorf-germany","building_id":8902},{"search_name":"ECIX-FRA (Frankfurt, Germany)","latitude":"50.112065","longitude":"8.683415","slug_name":"ecix-fra-frankfurt-germany","building_id":8050},{"search_name":"ECIX-FRA (Frankfurt, Germany)","latitude":"50.11964","longitude":"8.73469","slug_name":"ecix-fra-frankfurt-germany","building_id":15612},{"search_name":"ECIX-FRA (Frankfurt, Germany)","latitude":"50.12003","longitude":"8.73527","slug_name":"ecix-fra-frankfurt-germany","building_id":18504},{"search_name":"ECIX-FRA (Frankfurt, Germany)","latitude":"50.12007","longitude":"8.73561","slug_name":"ecix-fra-frankfurt-germany","building_id":10277},{"search_name":"ECIX-FRA (Frankfurt, Germany)","latitude":"50.12046","longitude":"8.73699","slug_name":"ecix-fra-frankfurt-germany","building_id":18503},{"search_name":"ECIX-FRA (Frankfurt, Germany)","latitude":"50.0986011","longitude":"8.632815","slug_name":"ecix-fra-frankfurt-germany","building_id":8697},{"search_name":"ECIX-FRA (Frankfurt, Germany)","latitude":"50.11893","longitude":"8.73518","slug_name":"ecix-fra-frankfurt-germany","building_id":18502},{"search_name":"ECIX-FRA (Frankfurt, Germany)","latitude":"50.119019","longitude":"8.7362391","slug_name":"ecix-fra-frankfurt-germany","building_id":18501},{"search_name":"ECIX-HAM (Hamburg, Germany)","latitude":"53.544034","longitude":"10.030993","slug_name":"ecix-ham-hamburg-germany","building_id":19194},{"search_name":"ECIX-HAM (Hamburg, Germany)","latitude":"53.547843","longitude":"10.043328","slug_name":"ecix-ham-hamburg-germany","building_id":14679},{"search_name":"ECIX-HAM (Hamburg, Germany)","latitude":"53.5508722","longitude":"10.0470258","slug_name":"ecix-ham-hamburg-germany","building_id":8811},{"search_name":"ECIX-HAM (Hamburg, Germany)","latitude":"53.5504172","longitude":"10.0485539","slug_name":"ecix-ham-hamburg-germany","building_id":14719},{"search_name":"Edge-IX (Manchester, United Kingdom)","latitude":"53.4641962545615","longitude":"-2.2363293170928955","slug_name":"edge-ix-manchester-united-kingdom","building_id":8921},{"search_name":"Edge-IX (Manchester, United Kingdom)","latitude":"53.4783073","longitude":"-2.2399199","slug_name":"edge-ix-manchester-united-kingdom","building_id":14541},{"search_name":"Edge-IX (Manchester, United Kingdom)","latitude":"53.4675208","longitude":"-2.2338689","slug_name":"edge-ix-manchester-united-kingdom","building_id":8079},{"search_name":"Edge-IX (Manchester, United Kingdom)","latitude":"53.4630316","longitude":"-2.2358326","slug_name":"edge-ix-manchester-united-kingdom","building_id":8791},{"search_name":"EKT-IX (Ekaterinburg, Russia)","latitude":"56.837524","longitude":"60.603272","slug_name":"ekt-ix-ekaterinburg-russia","building_id":19253},{"search_name":"EKT-IX (Ekaterinburg, Russia)","latitude":"56.837382","longitude":"60.619359","slug_name":"ekt-ix-ekaterinburg-russia","building_id":19251},{"search_name":"EKT-IX (Ekaterinburg, Russia)","latitude":"56.846277","longitude":"60.643412","slug_name":"ekt-ix-ekaterinburg-russia","building_id":19252},{"search_name":"EPIX (Katowice, Poland)","latitude":"50.251986","longitude":"19.002109","slug_name":"epix-katowice-poland","building_id":19642},{"search_name":"EPIX (Katowice, Poland)","latitude":"50.251409","longitude":"19.015856","slug_name":"epix-katowice-poland","building_id":14459},{"search_name":"EPIX (Katowice, Poland)","latitude":"50.2615887","longitude":"19.0248545","slug_name":"epix-katowice-poland","building_id":18305},{"search_name":"EPIX (Warsaw, Poland)","latitude":"52.2276614","longitude":"21.00425","slug_name":"epix-warsaw-poland","building_id":16753},{"search_name":"EPIX (Warsaw, Poland)","latitude":"52.226972","longitude":"21.001542","slug_name":"epix-warsaw-poland","building_id":19643},{"search_name":"EQIX-AT (Atlanta, United States)","latitude":"33.758884","longitude":"-84.38769","slug_name":"eqix-at-atlanta-united-states","building_id":9540},{"search_name":"EQIX-AT (Atlanta, United States)","latitude":"33.75561037354432","longitude":"-84.39165115356445","slug_name":"eqix-at-atlanta-united-states","building_id":8168},{"search_name":"EQIX-CHI (Chicago, United States)","latitude":"42.0020646","longitude":"-87.9553172","slug_name":"eqix-chi-chicago-united-states","building_id":17339},{"search_name":"EQIX-CHI (Chicago, United States)","latitude":"41.8541674","longitude":"-87.618531","slug_name":"eqix-chi-chicago-united-states","building_id":8876},{"search_name":"EQIX-DAL (Dallas, United States)","latitude":"32.80098325000927","longitude":"-96.81972026824951","slug_name":"eqix-dal-dallas-united-states","building_id":8286},{"search_name":"EQIX-DAL (Dallas, United States)","latitude":"32.786964","longitude":"-96.7942267","slug_name":"eqix-dal-dallas-united-states","building_id":8189},{"search_name":"EQIX-DC (Washington, United States)","latitude":"39.020884","longitude":"-77.451129","slug_name":"eqix-dc-washington-united-states","building_id":18799},{"search_name":"EQIX-DC (Washington, United States)","latitude":"39.01685","longitude":"-77.461338","slug_name":"eqix-dc-washington-united-states","building_id":18802},{"search_name":"EQIX-DC (Washington, United States)","latitude":"39.015216","longitude":"-77.457658","slug_name":"eqix-dc-washington-united-states","building_id":18171},{"search_name":"EQIX-DC (Washington, United States)","latitude":"39.0158327","longitude":"-77.4598682","slug_name":"eqix-dc-washington-united-states","building_id":8860},{"search_name":"EQIX-DC (Washington, United States)","latitude":"39.016208","longitude":"-77.459289","slug_name":"eqix-dc-washington-united-states","building_id":9031},{"search_name":"EQIX-DC (Washington, United States)","latitude":"39.0153742","longitude":"-77.4593854","slug_name":"eqix-dc-washington-united-states","building_id":18230},{"search_name":"EQIX-DC (Washington, United States)","latitude":"39.021851","longitude":"-77.460973","slug_name":"eqix-dc-washington-united-states","building_id":16384},{"search_name":"EQIX-HKG (Hong Kong, China)","latitude":"22.365857223457706","longitude":"114.1202849149704","slug_name":"eqix-hkg-hong-kong-china","building_id":8190},{"search_name":"EQIX-HKG (Hong Kong, China)","latitude":"22.362494","longitude":"114.118964","slug_name":"eqix-hkg-hong-kong-china","building_id":18433},{"search_name":"EQIX-LA (Los Angeles, United States)","latitude":"33.926077","longitude":"-118.394123","slug_name":"eqix-la-los-angeles-united-states","building_id":18233},{"search_name":"EQIX-LA (Los Angeles, United States)","latitude":"33.921302","longitude":"-118.38378","slug_name":"eqix-la-los-angeles-united-states","building_id":18234},{"search_name":"EQIX-LA (Los Angeles, United States)","latitude":"34.04867","longitude":"-118.257536","slug_name":"eqix-la-los-angeles-united-states","building_id":9567},{"search_name":"EQIX-LA (Los Angeles, United States)","latitude":"34.04889","longitude":"-118.259518","slug_name":"eqix-la-los-angeles-united-states","building_id":8387},{"search_name":"EQIX-MI (Miami, United States)","latitude":"25.77587624","longitude":"-80.193059988","slug_name":"eqix-mi-miami-united-states","building_id":8186},{"search_name":"EQIX-NYC (New York, United States)","latitude":"40.740957","longitude":"-74.002119","slug_name":"eqix-nyc-new-york-united-states","building_id":20196},{"search_name":"EQIX-NYC (New York, United States)","latitude":"40.736763","longitude":"-74.173364","slug_name":"eqix-nyc-new-york-united-states","building_id":8494},{"search_name":"EQIX-NYC (New York, United States)","latitude":"40.779168452166154","longitude":"-74.07488822937012","slug_name":"eqix-nyc-new-york-united-states","building_id":9668},{"search_name":"EQIX-NYC (New York, United States)","latitude":"40.7934545","longitude":"-74.0322357","slug_name":"eqix-nyc-new-york-united-states","building_id":17962},{"search_name":"EQIX-NYC (New York, United States)","latitude":"40.717664","longitude":"-74.008333","slug_name":"eqix-nyc-new-york-united-states","building_id":20198},{"search_name":"EQIX-NYC (New York, United States)","latitude":"40.7785973","longitude":"-74.0693533","slug_name":"eqix-nyc-new-york-united-states","building_id":18348},{"search_name":"EQIX-PA (Paris, France)","latitude":"48.928051","longitude":"2.35189","slug_name":"eqix-pa-paris-france","building_id":8949},{"search_name":"EQIX-PA (Paris, France)","latitude":"48.8560137","longitude":"2.3834406","slug_name":"eqix-pa-paris-france","building_id":8719},{"search_name":"EQIX-PO (San Francisco, United States)","latitude":"37.4003686","longitude":"-122.0151799","slug_name":"eqix-po-san-francisco-united-states","building_id":12356},{"search_name":"EQIX-PO (San Francisco, United States)","latitude":"37.4456911","longitude":"-122.1610689","slug_name":"eqix-po-san-francisco-united-states","building_id":8165},{"search_name":"EQIX-SEA (Seattle, United States)","latitude":"47.6143473","longitude":"-122.338515","slug_name":"eqix-sea-seattle-united-states","building_id":8166},{"search_name":"EQIX-SEA (Seattle, United States)","latitude":"47.614422","longitude":"-122.339744","slug_name":"eqix-sea-seattle-united-states","building_id":19036},{"search_name":"EQIX-SIN (Singapore, Singapore)","latitude":"1.3210158","longitude":"103.69519","slug_name":"eqix-sin-singapore-singapore","building_id":18009},{"search_name":"EQIX-SIN (Singapore, Singapore)","latitude":"1.29513","longitude":"103.790313","slug_name":"eqix-sin-singapore-singapore","building_id":14997},{"search_name":"EQIX-SJC (San Francisco, United States)","latitude":"37.2416206","longitude":"-121.783222","slug_name":"eqix-sjc-san-francisco-united-states","building_id":15050},{"search_name":"EQIX-SJC (San Francisco, United States)","latitude":"37.379168023","longitude":"-121.955488069","slug_name":"eqix-sjc-san-francisco-united-states","building_id":12382},{"search_name":"EQIX-SJC (San Francisco, United States)","latitude":"37.388799","longitude":"-121.8873841","slug_name":"eqix-sjc-san-francisco-united-states","building_id":14446},{"search_name":"EQIX-SJC (San Francisco, United States)","latitude":"37.414445","longitude":"-122.014646","slug_name":"eqix-sjc-san-francisco-united-states","building_id":14445},{"search_name":"EQIX-SJC (San Francisco, United States)","latitude":"37.2415096","longitude":"-121.7817521","slug_name":"eqix-sjc-san-francisco-united-states","building_id":18347},{"search_name":"EQIX-SYD (Sydney, Australia)","latitude":"-33.9122374","longitude":"151.1937548","slug_name":"eqix-syd-sydney-australia","building_id":18434},{"search_name":"EQIX-SYD (Sydney, Australia)","latitude":"-33.92139","longitude":"151.188205","slug_name":"eqix-syd-sydney-australia","building_id":8610},{"search_name":"EQIX-TOR (Toronto, Canada)","latitude":"43.644632","longitude":"-79.384228","slug_name":"eqix-tor-toronto-canada","building_id":8158},{"search_name":"EQIX-TYO (Tokyo, Japan)","latitude":"35.6567052","longitude":"139.8034201","slug_name":"eqix-tyo-tokyo-japan","building_id":18435},{"search_name":"EQIX-TYO (Tokyo, Japan)","latitude":"35.6221001","longitude":"139.7499841","slug_name":"eqix-tyo-tokyo-japan","building_id":15291},{"search_name":"EQIX-TYO (Tokyo, Japan)","latitude":"35.5793856","longitude":"139.7426454","slug_name":"eqix-tyo-tokyo-japan","building_id":8612},{"search_name":"EQIX-VIR (Washington, United States)","latitude":"38.908473","longitude":"-77.220218","slug_name":"eqix-vir-washington-united-states","building_id":8169},{"search_name":"EQIX-ZRH (Z\u00fcrich, Switzerland)","latitude":"47.515358","longitude":"8.537485","slug_name":"eqix-zrh-zrich-switzerland","building_id":19269},{"search_name":"EQIX-ZRH (Z\u00fcrich, Switzerland)","latitude":"47.38766","longitude":"8.519023","slug_name":"eqix-zrh-zrich-switzerland","building_id":8072},{"search_name":"EQIX-ZRH (Z\u00fcrich, Switzerland)","latitude":"47.388019","longitude":"8.520692","slug_name":"eqix-zrh-zrich-switzerland","building_id":18238},{"search_name":"EQIX-ZRH (Z\u00fcrich, Switzerland)","latitude":"47.388002","longitude":"8.520291","slug_name":"eqix-zrh-zrich-switzerland","building_id":14851},{"search_name":"EQIX-ZRH (Z\u00fcrich, Switzerland)","latitude":"47.378952","longitude":"8.500335","slug_name":"eqix-zrh-zrich-switzerland","building_id":16941},{"search_name":"ESPANIX (Madrid, Spain)","latitude":"40.4391411","longitude":"-3.6214827","slug_name":"espanix-madrid-spain","building_id":9892},{"search_name":"ESPANIX (Madrid, Spain)","latitude":"40.4658459","longitude":"-3.6628253","slug_name":"espanix-madrid-spain","building_id":8163},{"search_name":"ESPANIX (Madrid, Spain)","latitude":"40.4474865","longitude":"-3.5738085","slug_name":"espanix-madrid-spain","building_id":10237},{"search_name":"EuroGIX (Kehl, Germany)","latitude":"48.578355","longitude":"7.803896","slug_name":"eurogix-kehl-germany","building_id":15243},{"search_name":"EuroGIX (Strasbourg, France)","latitude":"48.562441","longitude":"7.787108","slug_name":"eurogix-strasbourg-france","building_id":19801},{"search_name":"EuroGIX (Strasbourg, France)","latitude":"48.5886982","longitude":"7.7484412","slug_name":"eurogix-strasbourg-france","building_id":15141},{"search_name":"EuroGIX (Strasbourg, France)","latitude":"48.600712","longitude":"7.757277","slug_name":"eurogix-strasbourg-france","building_id":19802},{"search_name":"FICIX-1 (Helsinki, Finland)","latitude":"60.1844923","longitude":"24.8153681","slug_name":"ficix-1-helsinki-finland","building_id":8042},{"search_name":"FICIX-2 (Helsinki, Finland)","latitude":"60.20419630670974","longitude":"24.91899847984314","slug_name":"ficix-2-helsinki-finland","building_id":9887},{"search_name":"FICIX-3 (Oulu, Finland)","latitude":"65.0124968","longitude":"25.4683023","slug_name":"ficix-3-oulu-finland","building_id":18861},{"search_name":"FIXO (Oslo, Norway)","latitude":"59.942782","longitude":"10.7171416","slug_name":"fixo-oslo-norway","building_id":17452},{"search_name":"FIXO (Oslo, Norway)","latitude":"59.9384333","longitude":"10.8349712","slug_name":"fixo-oslo-norway","building_id":15052},{"search_name":"FIXO (Oslo, Norway)","latitude":"59.9247264","longitude":"10.8101831","slug_name":"fixo-oslo-norway","building_id":8686},{"search_name":"FL-IX (Miami, United States)","latitude":"25.77587624","longitude":"-80.193059988","slug_name":"fl-ix-miami-united-states","building_id":8186},{"search_name":"FNIX6 (Paris, France)","latitude":"48.9041096","longitude":"2.2571685","slug_name":"fnix6-paris-france","building_id":9078},{"search_name":"FNIX6 (Paris, France)","latitude":"48.9035376","longitude":"2.3721445","slug_name":"fnix6-paris-france","building_id":8047},{"search_name":"FR-IX (Leeuwarden, Netherlands)","latitude":"53.2048902","longitude":"5.7652773","slug_name":"fr-ix-leeuwarden-netherlands","building_id":16962},{"search_name":"France-IX (Marseille, France)","latitude":"43.3109242","longitude":"5.372926","slug_name":"france-ix-marseille-france","building_id":8399},{"search_name":"France-IX (Marseille, France)","latitude":"43.359822","longitude":"5.337878","slug_name":"france-ix-marseille-france","building_id":20135},{"search_name":"France-IX (Paris, France)","latitude":"48.7266371","longitude":"2.0792315","slug_name":"france-ix-paris-france","building_id":18188},{"search_name":"France-IX (Paris, France)","latitude":"48.9107833","longitude":"2.3674868","slug_name":"france-ix-paris-france","building_id":18023},{"search_name":"France-IX (Paris, France)","latitude":"48.9148395","longitude":"2.3616935","slug_name":"france-ix-paris-france","building_id":18507},{"search_name":"France-IX (Paris, France)","latitude":"48.928051","longitude":"2.35189","slug_name":"france-ix-paris-france","building_id":8949},{"search_name":"France-IX (Paris, France)","latitude":"48.9041096","longitude":"2.2571685","slug_name":"france-ix-paris-france","building_id":9078},{"search_name":"France-IX (Paris, France)","latitude":"48.8560137","longitude":"2.3834406","slug_name":"france-ix-paris-france","building_id":8719},{"search_name":"France-IX (Paris, France)","latitude":"48.9065723","longitude":"2.3704538","slug_name":"france-ix-paris-france","building_id":8823},{"search_name":"France-IX (Paris, France)","latitude":"48.794708","longitude":"2.411799","slug_name":"france-ix-paris-france","building_id":18525},{"search_name":"France-IX (Paris, France)","latitude":"48.9035376","longitude":"2.3721445","slug_name":"france-ix-paris-france","building_id":8047},{"search_name":"France-IX (Paris, France)","latitude":"48.774881","longitude":"2.380689","slug_name":"france-ix-paris-france","building_id":18524},{"search_name":"FVG-IX (Udine, Italy)","latitude":"46.0765737","longitude":"13.1867462","slug_name":"fvg-ix-udine-italy","building_id":16840},{"search_name":"galNIX (Coruna, Spain)","latitude":"42.8757884","longitude":"-8.5540966","slug_name":"galnix-coruna-spain","building_id":15146},{"search_name":"GCIIX (Chicago, United States)","latitude":"41.8541674","longitude":"-87.618531","slug_name":"gciix-chicago-united-states","building_id":8876},{"search_name":"GIGAPIX (Lisbon, Portugal)","latitude":"38.75907","longitude":"-9.14235","slug_name":"gigapix-lisbon-portugal","building_id":8065},{"search_name":"GIX (Accra, Ghana)","latitude":"5.559646","longitude":"-0.1920162","slug_name":"gix-accra-ghana","building_id":15160},{"search_name":"GIX (Gothenburg, Sweden)","latitude":"57.7299685","longitude":"12.0029755","slug_name":"gix-gothenburg-sweden","building_id":18707},{"search_name":"GIX (Warsaw, Poland)","latitude":"52.235370","longitude":"21.009485","slug_name":"gix-warsaw-poland","building_id":15188},{"search_name":"GN-IX (Amsterdam, Netherlands)","latitude":"52.356152","longitude":"4.950644","slug_name":"gn-ix-amsterdam-netherlands","building_id":8128},{"search_name":"GN-IX (Amsterdam, Netherlands)","latitude":"52.356234","longitude":"4.952973","slug_name":"gn-ix-amsterdam-netherlands","building_id":8940},{"search_name":"GN-IX (Groningen, Netherlands)","latitude":"53.204167","longitude":"6.589767","slug_name":"gn-ix-groningen-netherlands","building_id":16947},{"search_name":"GN-IX (Groningen, Netherlands)","latitude":"53.2041669","longitude":"6.589767","slug_name":"gn-ix-groningen-netherlands","building_id":16910},{"search_name":"GN-IX (Groningen, Netherlands)","latitude":"53.241352","longitude":"6.535883","slug_name":"gn-ix-groningen-netherlands","building_id":16946},{"search_name":"GR-IX (Athens, Greece)","latitude":"38.0722375","longitude":"23.7737564","slug_name":"gr-ix-athens-greece","building_id":15228},{"search_name":"GR-IX (Athens, Greece)","latitude":"37.9884216","longitude":"23.7675972","slug_name":"gr-ix-athens-greece","building_id":18349},{"search_name":"GR-IX (Athens, Greece)","latitude":"37.8857272","longitude":"23.8789416","slug_name":"gr-ix-athens-greece","building_id":16890},{"search_name":"GRAX (Graz, Austria)","latitude":"47.0435459","longitude":"15.4659697","slug_name":"grax-graz-austria","building_id":18030},{"search_name":"GrenoblIX (Grenoble, France)","latitude":"45.1899162","longitude":"5.736583","slug_name":"grenoblix-grenoble-france","building_id":14716},{"search_name":"GrenoblIX (Grenoble, France)","latitude":"45.1647054","longitude":"5.7132464","slug_name":"grenoblix-grenoble-france","building_id":18889},{"search_name":"GREX (St. George\u2019s, Grenada)","latitude":"12.053532","longitude":"-61.749684","slug_name":"grex-st-georges-grenada","building_id":19290},{"search_name":"GTIIX (Toronto, Canada)","latitude":"43.644632","longitude":"-79.384228","slug_name":"gtiix-toronto-canada","building_id":8158},{"search_name":"GULF-IX (Manama, Bahrain)","latitude":"26.2166667","longitude":"50.5833333","slug_name":"gulf-ix-manama-bahrain","building_id":16864},{"search_name":"GV1 IBX (Geneva, Switzerland)","latitude":"46.203391","longitude":"6.144675","slug_name":"gv1-ibx-geneva-switzerland","building_id":8720},{"search_name":"HFXIX (Halifax, Canada)","latitude":"44.655166","longitude":"-63.626648","slug_name":"hfxix-halifax-canada","building_id":20160},{"search_name":"HIX (Hamilton, New Zealand)","latitude":"-37.783214","longitude":"175.2814203","slug_name":"hix-hamilton-new-zealand","building_id":8805},{"search_name":"HKIX (Hong Kong, China)","latitude":"22.396428","longitude":"114.109497","slug_name":"hkix-hong-kong-china","building_id":8884},{"search_name":"Home-IX (Moscow, Russia)","latitude":"55.6525619","longitude":"37.5291024","slug_name":"home-ix-moscow-russia","building_id":8850},{"search_name":"Home-IX (Moscow, Russia)","latitude":"55.7357615","longitude":"37.6639435","slug_name":"home-ix-moscow-russia","building_id":18714},{"search_name":"Home-IX (Moscow, Russia)","latitude":"55.734321","longitude":"37.4022155","slug_name":"home-ix-moscow-russia","building_id":18713},{"search_name":"Home-IX (Moscow, Russia)","latitude":"55.7962831","longitude":"37.6109659","slug_name":"home-ix-moscow-russia","building_id":18712},{"search_name":"HTN-CIX (Phnom Penh, Cambodia)","latitude":"11.564740","longitude":"104.913208","slug_name":"htn-cix-phnom-penh-cambodia","building_id":18844},{"search_name":"iAIX (Hong Kong, China)","latitude":"22.366657","longitude":"114.118797","slug_name":"iaix-hong-kong-china","building_id":15203},{"search_name":"iAIX (Hong Kong, China)","latitude":"22.31394","longitude":"114.2212701","slug_name":"iaix-hong-kong-china","building_id":15202},{"search_name":"iAIX (Hong Kong, China)","latitude":"22.266098","longitude":"114.246512","slug_name":"iaix-hong-kong-china","building_id":15204},{"search_name":"IIX (Jakarta, Indonesia)","latitude":"-6.2395839","longitude":"106.8320134","slug_name":"iix-jakarta-indonesia","building_id":8770},{"search_name":"IIX (Jakarta, Indonesia)","latitude":"-6.238812644356604","longitude":"106.82367324829102","slug_name":"iix-jakarta-indonesia","building_id":8771},{"search_name":"IIX (Jakarta, Indonesia)","latitude":"-6.227182","longitude":"106.833337","slug_name":"iix-jakarta-indonesia","building_id":19345},{"search_name":"IIX (Tel Aviv, Israel)","latitude":"32.1091439","longitude":"34.8390427","slug_name":"iix-tel-aviv-israel","building_id":8013},{"search_name":"INEX (Cork, Ireland)","latitude":"51.903826","longitude":"-8.511962","slug_name":"inex-cork-ireland","building_id":19497},{"search_name":"INEX (Dublin, Ireland)","latitude":"53.330332","longitude":"-6.364692","slug_name":"inex-dublin-ireland","building_id":18498},{"search_name":"INEX (Dublin, Ireland)","latitude":"53.2948938","longitude":"-6.4167441","slug_name":"inex-dublin-ireland","building_id":8826},{"search_name":"INEX (Dublin, Ireland)","latitude":"53.407424","longitude":"-6.345438","slug_name":"inex-dublin-ireland","building_id":20200},{"search_name":"INEX (Dublin, Ireland)","latitude":"53.31828741329681","longitude":"-6.439790725708008","slug_name":"inex-dublin-ireland","building_id":15297},{"search_name":"INEX (Dublin, Ireland)","latitude":"53.334251","longitude":"-6.365538","slug_name":"inex-dublin-ireland","building_id":15572},{"search_name":"INEX (Dublin, Ireland)","latitude":"53.406419","longitude":"-6.219909","slug_name":"inex-dublin-ireland","building_id":20199},{"search_name":"InterLAN (Bucharest, Romania)","latitude":"44.4285674","longitude":"26.1274934","slug_name":"interlan-bucharest-romania","building_id":18350},{"search_name":"INXS (Munich, Germany)","latitude":"48.1403474","longitude":"11.5256034","slug_name":"inxs-munich-germany","building_id":8119},{"search_name":"INXS MUC (Hamburg, Germany)","latitude":"53.55109","longitude":"10.04583","slug_name":"inxs-muc-hamburg-germany","building_id":8052},{"search_name":"IST-IX (Istanbul, Turkey)","latitude":"40.993416","longitude":"28.829467","slug_name":"ist-ix-istanbul-turkey","building_id":19203},{"search_name":"IX Cuiab\u00e1 MT (Cuiaba, Brazil)","latitude":"-15.594791","longitude":"-56.102809","slug_name":"ix-cuiab-mt-cuiaba-brazil","building_id":19280},{"search_name":"IX Liverpool (Liverpool, United Kingdom)","latitude":"53.394558","longitude":"-2.979130","slug_name":"ix-liverpool-liverpool-united-kingdom","building_id":20657},{"search_name":"IXCardiff (Cardiff, United Kingdom)","latitude":"51.478187","longitude":"-3.180582","slug_name":"ixcardiff-cardiff-united-kingdom","building_id":19613},{"search_name":"IXLeeds (Leeds, United Kingdom)","latitude":"53.794494","longitude":"-1.546587","slug_name":"ixleeds-leeds-united-kingdom","building_id":15153},{"search_name":"IXManchester (Manchester, United Kingdom)","latitude":"53.479324","longitude":"-2.248485","slug_name":"ixmanchester-manchester-united-kingdom","building_id":19612},{"search_name":"IXManchester (Manchester, United Kingdom)","latitude":"53.4641962545615","longitude":"-2.2363293170928955","slug_name":"ixmanchester-manchester-united-kingdom","building_id":8921},{"search_name":"IXManchester (Manchester, United Kingdom)","latitude":"53.4673783","longitude":"-2.292725","slug_name":"ixmanchester-manchester-united-kingdom","building_id":18510},{"search_name":"IXOR (Copenhagen, Denmark)","latitude":"55.676097","longitude":"12.568337","slug_name":"ixor-copenhagen-denmark","building_id":15299},{"search_name":"IXOR (Copenhagen, Denmark)","latitude":"55.661921","longitude":"12.377342","slug_name":"ixor-copenhagen-denmark","building_id":8691},{"search_name":"IXOR (Malm\u00f6, Sweden)","latitude":"55.5744012","longitude":"12.9283613","slug_name":"ixor-malm-sweden","building_id":18708},{"search_name":"IXOR (Malm\u00f6, Sweden)","latitude":"55.6068184","longitude":"12.998449","slug_name":"ixor-malm-sweden","building_id":18710},{"search_name":"IXP Megalink (La Paz, Bolivia)","latitude":"-16.511761","longitude":"-68.126417","slug_name":"ixp-megalink-la-paz-bolivia","building_id":20582},{"search_name":"IXP Mexicano (Mexico City, Mexico)","latitude":"19.363473","longitude":"-99.280877","slug_name":"ixp-mexicano-mexico-city-mexico","building_id":19499},{"search_name":"IXP-HN (Tegucigalpa, Honduras)","latitude":"14.082903","longitude":"-87.163009","slug_name":"ixp-hn-tegucigalpa-honduras","building_id":20344},{"search_name":"IXPN (Lagos, Nigeria)","latitude":"6.452101310493171","longitude":"3.3907467126846313","slug_name":"ixpn-lagos-nigeria","building_id":18709},{"search_name":"IXScotland (Edinburgh, United Kingdom)","latitude":"55.933469","longitude":"-3.305941","slug_name":"ixscotland-edinburgh-united-kingdom","building_id":19131},{"search_name":"JAX NAP (Jacksonville, United States)","latitude":"30.331226","longitude":"-81.662024","slug_name":"jax-nap-jacksonville-united-states","building_id":17145},{"search_name":"JINX (Johannesburg, South Africa)","latitude":"-26.1483199","longitude":"28.03525","slug_name":"jinx-johannesburg-south-africa","building_id":8003},{"search_name":"JINX (Johannesburg, South Africa)","latitude":"-25.928555","longitude":"28.141612","slug_name":"jinx-johannesburg-south-africa","building_id":20549},{"search_name":"JINX (Johannesburg, South Africa)","latitude":"-26.14642","longitude":"28.03742","slug_name":"jinx-johannesburg-south-africa","building_id":18315},{"search_name":"JINX (Johannesburg, South Africa)","latitude":"-26.146334","longitude":"28.037097","slug_name":"jinx-johannesburg-south-africa","building_id":20547},{"search_name":"JIXP (Kingston, Jamaica)","latitude":"17.992606","longitude":"-76.792135","slug_name":"jixp-kingston-jamaica","building_id":20476},{"search_name":"JPIX (Kanto, Japan)","latitude":"37.760834","longitude":"140.474728","slug_name":"jpix-kanto-japan","building_id":8891},{"search_name":"JPIX (Tokyo, Japan)","latitude":"35.6831213","longitude":"139.7745775","slug_name":"jpix-tokyo-japan","building_id":8695},{"search_name":"JPIX (Tokyo, Japan)","latitude":"35.6877482","longitude":"139.764603","slug_name":"jpix-tokyo-japan","building_id":8131},{"search_name":"JPIX (Tokyo, Japan)","latitude":"35.6854153","longitude":"139.7676668","slug_name":"jpix-tokyo-japan","building_id":8913},{"search_name":"JPIX (Tokyo, Japan)","latitude":"35.6174735","longitude":"139.7802376","slug_name":"jpix-tokyo-japan","building_id":8747},{"search_name":"JPIX Nagoya (Nagoya, Japan)","latitude":"35.1684839","longitude":"136.8937355","slug_name":"jpix-nagoya-nagoya-japan","building_id":8900},{"search_name":"JPIX Osaka (Kanto, Japan)","latitude":"34.677471","longitude":"135.503235","slug_name":"jpix-osaka-kanto-japan","building_id":8017},{"search_name":"JPNAP Osaka (Osaka, Japan)","latitude":"34.695643","longitude":"135.491702","slug_name":"jpnap-osaka-osaka-japan","building_id":19264},{"search_name":"JPNAP Osaka (Osaka, Japan)","latitude":"34.694626","longitude":"135.491422","slug_name":"jpnap-osaka-osaka-japan","building_id":19265},{"search_name":"JPNAP Tokyo (Osaka, Japan)","latitude":"34.676247","longitude":"135.495614","slug_name":"jpnap-tokyo-osaka-japan","building_id":19491},{"search_name":"JPNAP Tokyo (Tokyo, Japan)","latitude":"35.6871789","longitude":"139.765453","slug_name":"jpnap-tokyo-tokyo-japan","building_id":8918},{"search_name":"JPNAP Tokyo (Tokyo, Japan)","latitude":"35.687421","longitude":"139.765370","slug_name":"jpnap-tokyo-tokyo-japan","building_id":19267},{"search_name":"JPNAP Tokyo (Tokyo, Japan)","latitude":"35.6878928","longitude":"139.7673112","slug_name":"jpnap-tokyo-tokyo-japan","building_id":8917},{"search_name":"JPNAP Tokyo (Tokyo, Japan)","latitude":"35.617406","longitude":"139.748040","slug_name":"jpnap-tokyo-tokyo-japan","building_id":19266},{"search_name":"K-IX (Krak\u00f3w, Poland)","latitude":"50.0600233","longitude":"19.9431201","slug_name":"k-ix-krakw-poland","building_id":14457},{"search_name":"KCIX (Kansas City, United States)","latitude":"39.1011212","longitude":"-94.5820759","slug_name":"kcix-kansas-city-united-states","building_id":17075},{"search_name":"KCIX (Kansas City, United States)","latitude":"39.1008326","longitude":"-94.5810044","slug_name":"kcix-kansas-city-united-states","building_id":17078},{"search_name":"KCIX (Kansas City, United States)","latitude":"39.1328019","longitude":"-94.5804487","slug_name":"kcix-kansas-city-united-states","building_id":18706},{"search_name":"KCIX (Kansas City, United States)","latitude":"39.1010976","longitude":"-94.579019","slug_name":"kcix-kansas-city-united-states","building_id":17439},{"search_name":"KH-IX (Kharkov, Ukraine)","latitude":"49.987201","longitude":"36.223262","slug_name":"kh-ix-kharkov-ukraine","building_id":19191},{"search_name":"KINIX (Kinshasa, Congo, Dem. Rep.)","latitude":"-4.302922","longitude":"15.311624","slug_name":"kinix-kinshasa-congo-dem-rep-","building_id":20129},{"search_name":"KINX (Seoul, Korea, Rep.)","latitude":"37.482623017812685","longitude":"126.87973022460938","slug_name":"kinx-seoul-korea-rep-","building_id":18704},{"search_name":"KINX (Seoul, Korea, Rep.)","latitude":"37.48790134915005","longitude":"127.05087661743164","slug_name":"kinx-seoul-korea-rep-","building_id":8021},{"search_name":"KINX (Seoul, Korea, Rep.)","latitude":"37.413464","longitude":"127.124490","slug_name":"kinx-seoul-korea-rep-","building_id":19184},{"search_name":"KINX (Seoul, Korea, Rep.)","latitude":"37.579172","longitude":"126.894879","slug_name":"kinx-seoul-korea-rep-","building_id":19185},{"search_name":"KIXP (Nairobi, Kenya)","latitude":"-1.277298","longitude":"36.806261","slug_name":"kixp-nairobi-kenya","building_id":15179},{"search_name":"KleyReX (Frankfurt, Germany)","latitude":"50.1148489279146","longitude":"8.67766705904365","slug_name":"kleyrex-frankfurt-germany","building_id":18101},{"search_name":"KleyReX (Frankfurt, Germany)","latitude":"50.121961","longitude":"8.745149","slug_name":"kleyrex-frankfurt-germany","building_id":19591},{"search_name":"KleyReX (Frankfurt, Germany)","latitude":"50.105396","longitude":"8.647315","slug_name":"kleyrex-frankfurt-germany","building_id":18570},{"search_name":"KleyReX (Frankfurt, Germany)","latitude":"50.0966084","longitude":"8.6434499","slug_name":"kleyrex-frankfurt-germany","building_id":8321},{"search_name":"KleyReX (Frankfurt, Germany)","latitude":"50.11964","longitude":"8.73469","slug_name":"kleyrex-frankfurt-germany","building_id":15612},{"search_name":"KleyReX (Frankfurt, Germany)","latitude":"50.12003","longitude":"8.73527","slug_name":"kleyrex-frankfurt-germany","building_id":18504},{"search_name":"KleyReX (Frankfurt, Germany)","latitude":"50.12007","longitude":"8.73561","slug_name":"kleyrex-frankfurt-germany","building_id":10277},{"search_name":"KleyReX (Frankfurt, Germany)","latitude":"50.12046","longitude":"8.73699","slug_name":"kleyrex-frankfurt-germany","building_id":18503},{"search_name":"KleyReX (Frankfurt, Germany)","latitude":"50.1215257","longitude":"8.7386083","slug_name":"kleyrex-frankfurt-germany","building_id":8717},{"search_name":"KleyReX (Frankfurt, Germany)","latitude":"50.0961269","longitude":"8.6283927","slug_name":"kleyrex-frankfurt-germany","building_id":9037},{"search_name":"KleyReX (Frankfurt, Germany)","latitude":"50.09902","longitude":"8.63358","slug_name":"kleyrex-frankfurt-germany","building_id":10276},{"search_name":"KleyReX (Frankfurt, Germany)","latitude":"50.09776","longitude":"8.62984","slug_name":"kleyrex-frankfurt-germany","building_id":18327},{"search_name":"KleyReX (Frankfurt, Germany)","latitude":"50.139900","longitude":"8.743460","slug_name":"kleyrex-frankfurt-germany","building_id":19349},{"search_name":"KleyReX (Frankfurt, Germany)","latitude":"50.1426685","longitude":"8.7404233","slug_name":"kleyrex-frankfurt-germany","building_id":9697},{"search_name":"KleyReX (Frankfurt, Germany)","latitude":"50.08158","longitude":"8.62337","slug_name":"kleyrex-frankfurt-germany","building_id":9692},{"search_name":"KleyReX (Frankfurt, Germany)","latitude":"50.10179","longitude":"8.63359","slug_name":"kleyrex-frankfurt-germany","building_id":18104},{"search_name":"KleyReX (Frankfurt, Germany)","latitude":"50.0986011","longitude":"8.632815","slug_name":"kleyrex-frankfurt-germany","building_id":8697},{"search_name":"KleyReX (Frankfurt, Germany)","latitude":"50.106949","longitude":" 8.740686","slug_name":"kleyrex-frankfurt-germany","building_id":18102},{"search_name":"KleyReX (Frankfurt, Germany)","latitude":"50.1163907","longitude":"8.6782063","slug_name":"kleyrex-frankfurt-germany","building_id":9104},{"search_name":"KleyReX (Frankfurt, Germany)","latitude":"50.11893","longitude":"8.73518","slug_name":"kleyrex-frankfurt-germany","building_id":12484},{"search_name":"KleyReX (Frankfurt, Germany)","latitude":"50.119019","longitude":"8.7362391","slug_name":"kleyrex-frankfurt-germany","building_id":9036},{"search_name":"KleyReX (Frankfurt, Germany)","latitude":"50.10535","longitude":"8.66704","slug_name":"kleyrex-frankfurt-germany","building_id":8962},{"search_name":"KOSIX (Pristina, Serbia)","latitude":"42.672421","longitude":"21.164539","slug_name":"kosix-pristina-serbia","building_id":18905},{"search_name":"KZN-IX (Kazan, Russia)","latitude":"55.7808568","longitude":"49.1342594","slug_name":"kzn-ix-kazan-russia","building_id":18705},{"search_name":"LAIIX (Los Angeles, United States)","latitude":"34.047966","longitude":"-118.25557","slug_name":"laiix-los-angeles-united-states","building_id":9023},{"search_name":"LAIIX (Los Angeles, United States)","latitude":"34.048302682","longitude":"-118.256306024","slug_name":"laiix-los-angeles-united-states","building_id":8801},{"search_name":"Level 3 Exchange Hong Kong (Hong Kong, China)","latitude":"22.365857223457706","longitude":"114.1202849149704","slug_name":"level-3-exchange-hong-kong-hong-kong-china","building_id":8190},{"search_name":"Level 3 Exchange Hong Kong (Hong Kong, China)","latitude":"22.360138","longitude":"114.120033","slug_name":"level-3-exchange-hong-kong-hong-kong-china","building_id":18992},{"search_name":"LINX (London, United Kingdom)","latitude":"51.520221","longitude":"-0.073004","slug_name":"linx-london-united-kingdom","building_id":8911},{"search_name":"LINX (London, United Kingdom)","latitude":"51.511549","longitude":"-0.0029163","slug_name":"linx-london-united-kingdom","building_id":8075},{"search_name":"LINX (London, United Kingdom)","latitude":"51.5236601","longitude":"-0.6342463","slug_name":"linx-london-united-kingdom","building_id":17984},{"search_name":"LINX (London, United Kingdom)","latitude":"51.499762","longitude":" -0.0107569","slug_name":"linx-london-united-kingdom","building_id":9646},{"search_name":"LINX (London, United Kingdom)","latitude":"51.496903","longitude":"-0.018944","slug_name":"linx-london-united-kingdom","building_id":8353},{"search_name":"LINX (London, United Kingdom)","latitude":"51.4980695","longitude":"-0.0143605","slug_name":"linx-london-united-kingdom","building_id":8768},{"search_name":"LINX (London, United Kingdom)","latitude":"51.4988423","longitude":"-0.0143269","slug_name":"linx-london-united-kingdom","building_id":8351},{"search_name":"LINX (London, United Kingdom)","latitude":"51.369084","longitude":"-0.292410","slug_name":"linx-london-united-kingdom","building_id":19062},{"search_name":"LINX (London, United Kingdom)","latitude":"51.5307733","longitude":"-0.2579029","slug_name":"linx-london-united-kingdom","building_id":17829},{"search_name":"LINX NoVA (Washington, United States)","latitude":"38.9507382","longitude":"-77.3639041","slug_name":"linx-nova-washington-united-states","building_id":9624},{"search_name":"LINX NoVA (Washington, United States)","latitude":"39.0181667","longitude":"-77.4631526","slug_name":"linx-nova-washington-united-states","building_id":17960},{"search_name":"LINX NoVA (Washington, United States)","latitude":"38.7464612","longitude":"-77.5330785","slug_name":"linx-nova-washington-united-states","building_id":18473},{"search_name":"LIX (Riga, Latvia)","latitude":"56.951976","longitude":"24.124289","slug_name":"lix-riga-latvia","building_id":19588},{"search_name":"LIX (Riga, Latvia)","latitude":"56.948577","longitude":"24.118195","slug_name":"lix-riga-latvia","building_id":8060},{"search_name":"LIX (Riga, Latvia)","latitude":"56.923961","longitude":"24.137042","slug_name":"lix-riga-latvia","building_id":17700},{"search_name":"LIXP (Maseru, Lesotho)","latitude":"-29.316231","longitude":"27.493130","slug_name":"lixp-maseru-lesotho","building_id":20470},{"search_name":"LONAP (London, United Kingdom)","latitude":"51.520221","longitude":"-0.073004","slug_name":"lonap-london-united-kingdom","building_id":8911},{"search_name":"LONAP (London, United Kingdom)","latitude":"51.511549","longitude":"-0.0029163","slug_name":"lonap-london-united-kingdom","building_id":8075},{"search_name":"LONAP (London, United Kingdom)","latitude":"51.499762","longitude":" -0.0107569","slug_name":"lonap-london-united-kingdom","building_id":9646},{"search_name":"LONAP (London, United Kingdom)","latitude":"51.4980695","longitude":"-0.0143605","slug_name":"lonap-london-united-kingdom","building_id":8768},{"search_name":"LU-CIX (Luxembourg, Luxembourg)","latitude":"49.4984223","longitude":"6.0519742","slug_name":"lu-cix-luxembourg-luxembourg","building_id":18447},{"search_name":"LU-CIX (Luxembourg, Luxembourg)","latitude":"49.6484478","longitude":"5.9577599","slug_name":"lu-cix-luxembourg-luxembourg","building_id":18446},{"search_name":"LU-CIX (Luxembourg, Luxembourg)","latitude":"49.5048055","longitude":"6.112374","slug_name":"lu-cix-luxembourg-luxembourg","building_id":18764},{"search_name":"LU-CIX (Luxembourg, Luxembourg)","latitude":"49.6372015","longitude":"6.1649222","slug_name":"lu-cix-luxembourg-luxembourg","building_id":14071},{"search_name":"LU-CIX (Luxembourg, Luxembourg)","latitude":"49.5846039","longitude":"6.1140766","slug_name":"lu-cix-luxembourg-luxembourg","building_id":16911},{"search_name":"LU-CIX (Luxembourg, Luxembourg)","latitude":"49.581645","longitude":"6.118486","slug_name":"lu-cix-luxembourg-luxembourg","building_id":19205},{"search_name":"LU-CIX (Luxembourg, Luxembourg)","latitude":"49.693611","longitude":"6.32500","slug_name":"lu-cix-luxembourg-luxembourg","building_id":19206},{"search_name":"LU-CIX (Luxembourg, Luxembourg)","latitude":"49.790216","longitude":"6.085567","slug_name":"lu-cix-luxembourg-luxembourg","building_id":19204},{"search_name":"LyonIX (Lyon, France)","latitude":"45.806503","longitude":"4.772604","slug_name":"lyonix-lyon-france","building_id":19306},{"search_name":"LyonIX (Lyon, France)","latitude":"45.781382","longitude":"4.8647926","slug_name":"lyonix-lyon-france","building_id":18888},{"search_name":"LyonIX (Lyon, France)","latitude":"45.7234963","longitude":"4.8644622","slug_name":"lyonix-lyon-france","building_id":8684},{"search_name":"M-IX Indy (Chicago, United States)","latitude":"41.8541674","longitude":"-87.618531","slug_name":"m-ix-indy-chicago-united-states","building_id":8876},{"search_name":"M-IX Indy (Indianapolis, United States)","latitude":"39.775998","longitude":"-86.042750","slug_name":"m-ix-indy-indianapolis-united-states","building_id":19641},{"search_name":"M-IX Indy (Indianapolis, United States)","latitude":"39.759787","longitude":"-86.170857","slug_name":"m-ix-indy-indianapolis-united-states","building_id":10218},{"search_name":"M-IX Indy (Indianapolis, United States)","latitude":"39.759880","longitude":"-86.172275","slug_name":"m-ix-indy-indianapolis-united-states","building_id":17141},{"search_name":"MadIX (Madison, United States)","latitude":"43.0713085","longitude":"-89.4063181","slug_name":"madix-madison-united-states","building_id":18703},{"search_name":"MadIX (Madison, United States)","latitude":"43.0727066","longitude":"-89.387195","slug_name":"madix-madison-united-states","building_id":15644},{"search_name":"MAGPI (Philadelphia, United States)","latitude":"39.952998","longitude":"-75.193026","slug_name":"magpi-philadelphia-united-states","building_id":18893},{"search_name":"MB-IX (Mbabane, Swaziland)","latitude":"-26.305448","longitude":"31.136672","slug_name":"mb-ix-mbabane-swaziland","building_id":19292},{"search_name":"MBIX (Winnipeg, Canada)","latitude":"49.896223","longitude":"-97.136926","slug_name":"mbix-winnipeg-canada","building_id":19494},{"search_name":"MBIX (Winnipeg, Canada)","latitude":"49.893607","longitude":" -97.14294","slug_name":"mbix-winnipeg-canada","building_id":20607},{"search_name":"MegaIX (Auckland, New Zealand)","latitude":"-36.849346","longitude":"174.765412","slug_name":"megaix-auckland-new-zealand","building_id":18998},{"search_name":"MegaIX (Auckland, New Zealand)","latitude":"-36.740554","longitude":"174.728988","slug_name":"megaix-auckland-new-zealand","building_id":19636},{"search_name":"MegaIX (Brisbane, Australia)","latitude":"-27.459663","longitude":"153.031086","slug_name":"megaix-brisbane-australia","building_id":15118},{"search_name":"MegaIX (Brisbane, Australia)","latitude":"-27.465124","longitude":"153.024983","slug_name":"megaix-brisbane-australia","building_id":16577},{"search_name":"MegaIX (Hong Kong, China)","latitude":"22.365857223457706","longitude":"114.1202849149704","slug_name":"megaix-hong-kong-china","building_id":8190},{"search_name":"MegaIX (Hong Kong, China)","latitude":"22.266098","longitude":"114.246512","slug_name":"megaix-hong-kong-china","building_id":15204},{"search_name":"MegaIX (Melbourne, Australia)","latitude":"-37.835012","longitude":"144.920553","slug_name":"megaix-melbourne-australia","building_id":19321},{"search_name":"MegaIX (Sydney, Australia)","latitude":"-33.785066","longitude":"151.131216","slug_name":"megaix-sydney-australia","building_id":18977},{"search_name":"MegaIX Singapore (Singapore, Singapore)","latitude":"1.3210158","longitude":"103.69519","slug_name":"megaix-singapore-singapore-singapore","building_id":18009},{"search_name":"MegaIX Singapore (Singapore, Singapore)","latitude":"1.336752","longitude":"103.893589","slug_name":"megaix-singapore-singapore-singapore","building_id":18028},{"search_name":"MegaIX Singapore (Singapore, Singapore)","latitude":"1.29513","longitude":"103.790313","slug_name":"megaix-singapore-singapore-singapore","building_id":14997},{"search_name":"MEIX (Cairo, Egypt)","latitude":"30.0909526","longitude":"31.344971","slug_name":"meix-cairo-egypt","building_id":16766},{"search_name":"MICE (Minneapolis-St.Paul, United States)","latitude":"44.9723813","longitude":"-93.2556691","slug_name":"mice-minneapolis-st-paul-united-states","building_id":8436},{"search_name":"MINAP (Milan, Italy)","latitude":"45.4789921","longitude":"9.1026941","slug_name":"minap-milan-italy","building_id":8121},{"search_name":"MIX (Blantyre, Malawi)","latitude":"-15.801895839125521","longitude":"35.01548767089844","slug_name":"mix-blantyre-malawi","building_id":18702},{"search_name":"MIX (Boston, United States)","latitude":"42.3544921","longitude":"-71.0595237","slug_name":"mix-boston-united-states","building_id":10544},{"search_name":"MIX (Boston, United States)","latitude":"42.302731","longitude":"-71.219638","slug_name":"mix-boston-united-states","building_id":19049},{"search_name":"MIX (Boston, United States)","latitude":"42.301104","longitude":"-71.221829","slug_name":"mix-boston-united-states","building_id":10295},{"search_name":"MIX (Boston, United States)","latitude":"42.5210284","longitude":"-71.0850051","slug_name":"mix-boston-united-states","building_id":18041},{"search_name":"MIX (Boston, United States)","latitude":"42.528273","longitude":"-71.249413","slug_name":"mix-boston-united-states","building_id":19878},{"search_name":"MIX (Boston, United States)","latitude":"42.3675416","longitude":"-71.0864713","slug_name":"mix-boston-united-states","building_id":10292},{"search_name":"MIX (Boston, United States)","latitude":"42.378001","longitude":"-71.080879","slug_name":"mix-boston-united-states","building_id":14995},{"search_name":"MIX (Brockton, United States)","latitude":"42.082882","longitude":"-71.018268","slug_name":"mix-brockton-united-states","building_id":19385},{"search_name":"MIX (Chelmsford, United States)","latitude":"42.597085","longitude":"-71.331383","slug_name":"mix-chelmsford-united-states","building_id":20473},{"search_name":"MIX (Lowell, United States)","latitude":"42.629809","longitude":"-71.305918","slug_name":"mix-lowell-united-states","building_id":19735},{"search_name":"MIX (Montgomery, United States)","latitude":"32.378355","longitude":"-86.302989","slug_name":"mix-montgomery-united-states","building_id":20203},{"search_name":"MIX (Msida, Malta)","latitude":"35.90334713838345","longitude":"14.484368562698364","slug_name":"mix-msida-malta","building_id":8062},{"search_name":"MIX (Providence, United States)","latitude":"41.817374","longitude":"-71.427671","slug_name":"mix-providence-united-states","building_id":17453},{"search_name":"MIX (Providence, United States)","latitude":"41.817958","longitude":"-71.429034","slug_name":"mix-providence-united-states","building_id":20472},{"search_name":"MIX-IT (Milan, Italy)","latitude":"45.4779127","longitude":"9.1013866","slug_name":"mix-it-milan-italy","building_id":18863},{"search_name":"MIX-IT (Milan, Italy)","latitude":"45.480960","longitude":"9.030168","slug_name":"mix-it-milan-italy","building_id":20201},{"search_name":"MIXP (Port Louis, Mauritius)","latitude":"-20.243312","longitude":"57.496361","slug_name":"mixp-port-louis-mauritius","building_id":20158},{"search_name":"MIXT (Paris, France)","latitude":"48.86974146221432","longitude":"2.344186305999756","slug_name":"mixt-paris-france","building_id":8043},{"search_name":"MKEIX (Milwaukee, United States)","latitude":"43.039011","longitude":"-87.9069449","slug_name":"mkeix-milwaukee-united-states","building_id":14750},{"search_name":"Moebius (S\u00e3o Paulo, Brazil)","latitude":"-22.964527","longitude":"-43.217722","slug_name":"moebius-so-paulo-brazil","building_id":19192},{"search_name":"Moz-iX (Maputo, Mozambique)","latitude":"-25.949065","longitude":" 32.600749","slug_name":"moz-ix-maputo-mozambique","building_id":19593},{"search_name":"MSK-IX (Moscow, Russia)","latitude":"55.801298","longitude":"37.477039","slug_name":"msk-ix-moscow-russia","building_id":19397},{"search_name":"MSK-IX (Moscow, Russia)","latitude":"55.751242","longitude":"37.618422","slug_name":"msk-ix-moscow-russia","building_id":17866},{"search_name":"MSK-IX (Moscow, Russia)","latitude":"55.8026773","longitude":"37.555959","slug_name":"msk-ix-moscow-russia","building_id":18205},{"search_name":"MSK-IX (Moscow, Russia)","latitude":"55.727318","longitude":"37.479902","slug_name":"msk-ix-moscow-russia","building_id":19254},{"search_name":"MSK-IX (Moscow, Russia)","latitude":"55.7756358","longitude":"37.6536025","slug_name":"msk-ix-moscow-russia","building_id":18372},{"search_name":"MSK-IX (Moscow, Russia)","latitude":"55.8012165","longitude":" 37.4770295","slug_name":"msk-ix-moscow-russia","building_id":8183},{"search_name":"MSK-IX (Moscow, Russia)","latitude":"55.7574515","longitude":"37.610101","slug_name":"msk-ix-moscow-russia","building_id":8916},{"search_name":"MSK-IX (Moscow, Russia)","latitude":"55.733002","longitude":"37.713469","slug_name":"msk-ix-moscow-russia","building_id":18562},{"search_name":"MSK-IX (Moscow, Russia)","latitude":"55.797139","longitude":"37.609360","slug_name":"msk-ix-moscow-russia","building_id":18563},{"search_name":"MSK-IX (Moscow, Russia)","latitude":"55.6770535","longitude":"37.55981","slug_name":"msk-ix-moscow-russia","building_id":8181},{"search_name":"MSK-IX (Moscow, Russia)","latitude":"55.7181827","longitude":"37.6101035","slug_name":"msk-ix-moscow-russia","building_id":8182},{"search_name":"MSK-IX (Moscow, Russia)","latitude":"55.792907","longitude":"37.610687","slug_name":"msk-ix-moscow-russia","building_id":9886},{"search_name":"MSK-IX (Moscow, Russia)","latitude":"55.7579274","longitude":"37.610954","slug_name":"msk-ix-moscow-russia","building_id":8180},{"search_name":"MSK-IX (Moscow, Russia)","latitude":"55.6520589","longitude":"37.5298964","slug_name":"msk-ix-moscow-russia","building_id":8179},{"search_name":"MSK-IX (Moscow, Russia)","latitude":"55.626950","longitude":"37.620131","slug_name":"msk-ix-moscow-russia","building_id":19125},{"search_name":"MyIX (Cyberjaya, Malaysia)","latitude":"2.914634","longitude":"101.654473","slug_name":"myix-cyberjaya-malaysia","building_id":17164},{"search_name":"MyIX (Cyberjaya, Malaysia)","latitude":"2.914925","longitude":"101.654353","slug_name":"myix-cyberjaya-malaysia","building_id":20608},{"search_name":"MyIX (Johor Bahru, Malaysia)","latitude":"1.4587753","longitude":"103.7635614","slug_name":"myix-johor-bahru-malaysia","building_id":18858},{"search_name":"MyIX (Kuala Lumpur, Malaysia)","latitude":"3.149439","longitude":"101.705977","slug_name":"myix-kuala-lumpur-malaysia","building_id":17163},{"search_name":"MyIX (Kuching, Malaysia)","latitude":"1.524748","longitude":"110.387014","slug_name":"myix-kuching-malaysia","building_id":20190},{"search_name":"MyIX (Penang, Malaysia)","latitude":"5.3254305","longitude":"100.286349","slug_name":"myix-penang-malaysia","building_id":18856},{"search_name":"MyIX (Sabah, Malaysia)","latitude":"5.988523","longitude":"116.092662","slug_name":"myix-sabah-malaysia","building_id":18860},{"search_name":"N-IX (Nuremberg, Germany)","latitude":"49.38991","longitude":"11.17706","slug_name":"n-ix-nuremberg-germany","building_id":18377},{"search_name":"N-IX (Nuremberg, Germany)","latitude":"49.4539333","longitude":"11.0636334","slug_name":"n-ix-nuremberg-germany","building_id":8750},{"search_name":"N-IX (Nuremberg, Germany)","latitude":"49.4284","longitude":"11.02269","slug_name":"n-ix-nuremberg-germany","building_id":8893},{"search_name":"N-IX (Nuremberg, Germany)","latitude":"49.41013","longitude":"11.13012","slug_name":"n-ix-nuremberg-germany","building_id":18725},{"search_name":"NaMeX (Rome, Italy)","latitude":"41.8989664","longitude":"12.5118661","slug_name":"namex-rome-italy","building_id":10224},{"search_name":"NAP Colombia (Bogot\u00e1, Colombia)","latitude":"4.6810481466182","longitude":"-74.04094487428665","slug_name":"nap-colombia-bogot-colombia","building_id":8111},{"search_name":"NAP de las Am\u00e9ricas Colombia (Bogot\u00e1, Colombia)","latitude":"4.598056","longitude":"-74.075833","slug_name":"nap-de-las-amricas-colombia-bogot-colombia","building_id":15223},{"search_name":"NAP del Caribe (Santo Domingo, Dominican Republic)","latitude":"18.48681","longitude":"-69.940539","slug_name":"nap-del-caribe-santo-domingo-dominican-republic","building_id":18815},{"search_name":"NAP do Brasil (S\u00e3o Paulo, Brazil)","latitude":"-23.5365032","longitude":"-46.7138419","slug_name":"nap-do-brasil-so-paulo-brazil","building_id":8110},{"search_name":"NAP Miami (Miami, United States)","latitude":"25.77587624","longitude":"-80.193059988","slug_name":"nap-miami-miami-united-states","building_id":8186},{"search_name":"NAP of the Americas, NOTA (Miami, United States)","latitude":"25.78262624","longitude":"-80.193069234","slug_name":"nap-of-the-americas-nota-miami-united-states","building_id":8145},{"search_name":"NAP-CL (Santiago, Chile)","latitude":" -33.443178","longitude":"-70.6236591","slug_name":"nap-cl-santiago-chile","building_id":8109},{"search_name":"NAP-Peru (Lima, Peru)","latitude":"-12.1017066","longitude":"-76.9945358","slug_name":"nap-peru-lima-peru","building_id":8113},{"search_name":"NAP.EC (Quito, Ecuador)","latitude":"-0.129636","longitude":"-78.503451","slug_name":"nap-ec-quito-ecuador","building_id":14848},{"search_name":"NAPAfrica CT (Cape Town, South Africa)","latitude":"-33.970344","longitude":"18.46432","slug_name":"napafrica-ct-cape-town-south-africa","building_id":8002},{"search_name":"NAPAfrica DB (Durban, South Africa)","latitude":"-29.7793236","longitude":"30.9924543","slug_name":"napafrica-db-durban-south-africa","building_id":18328},{"search_name":"NAPAfrica JB (Johannesburg, South Africa)","latitude":"-26.13778","longitude":"28.19756","slug_name":"napafrica-jb-johannesburg-south-africa","building_id":18111},{"search_name":"NDIX (Almelo, Netherlands)","latitude":"52.3418052","longitude":"6.6615392","slug_name":"ndix-almelo-netherlands","building_id":16912},{"search_name":"NDIX (Arnhem, Netherlands)","latitude":"51.97683","longitude":"5.91481","slug_name":"ndix-arnhem-netherlands","building_id":16913},{"search_name":"NDIX (Den Bosch, Netherlands)","latitude":"51.6865316","longitude":"5.3594124","slug_name":"ndix-den-bosch-netherlands","building_id":16914},{"search_name":"NDIX (Deventer, Netherlands)","latitude":"52.2519722","longitude":"6.1770874","slug_name":"ndix-deventer-netherlands","building_id":16915},{"search_name":"NDIX (Doetinchem, Netherlands)","latitude":"51.9542037","longitude":"6.300182","slug_name":"ndix-doetinchem-netherlands","building_id":16916},{"search_name":"NDIX (Ede, Netherlands)","latitude":"52.0276117","longitude":"5.6242624","slug_name":"ndix-ede-netherlands","building_id":16917},{"search_name":"NDIX (Enschede, Netherlands)","latitude":"52.2372452","longitude":"6.8491146","slug_name":"ndix-enschede-netherlands","building_id":8749},{"search_name":"NDIX (Hardenberg, Netherlands)","latitude":"52.575342","longitude":"6.622884","slug_name":"ndix-hardenberg-netherlands","building_id":16932},{"search_name":"NDIX (Hengelo, Netherlands)","latitude":"52.2847026","longitude":"6.7796681","slug_name":"ndix-hengelo-netherlands","building_id":16918},{"search_name":"NDIX (Munster, Germany)","latitude":"52.173295","longitude":"7.528190","slug_name":"ndix-munster-germany","building_id":16933},{"search_name":"NDIX (Munster, Germany)","latitude":"52.983213","longitude":"10.086841","slug_name":"ndix-munster-germany","building_id":16934},{"search_name":"NDIX (Munster, Germany)","latitude":"52.150099","longitude":"7.338951","slug_name":"ndix-munster-germany","building_id":16935},{"search_name":"NetIX (Amsterdam, Netherlands)","latitude":"52.2803455","longitude":"4.7537924","slug_name":"netix-amsterdam-netherlands","building_id":17835},{"search_name":"NetIX (Athens, Greece)","latitude":"38.0722375","longitude":"23.7737564","slug_name":"netix-athens-greece","building_id":15228},{"search_name":"NetIX (Belgrade, Serbia)","latitude":"44.8104042","longitude":"20.4624095","slug_name":"netix-belgrade-serbia","building_id":18665},{"search_name":"NetIX (Bratislava, Slovak Republic)","latitude":"48.119196","longitude":"17.095850","slug_name":"netix-bratislava-slovak-republic","building_id":20152},{"search_name":"NetIX (Bucharest, Romania)","latitude":"44.432500","longitude":"26.103889","slug_name":"netix-bucharest-romania","building_id":16751},{"search_name":"NetIX (Frankfurt, Germany)","latitude":"50.098670","longitude":"8.632260","slug_name":"netix-frankfurt-germany","building_id":20125},{"search_name":"NetIX (Frankfurt, Germany)","latitude":"50.11893","longitude":"8.73518","slug_name":"netix-frankfurt-germany","building_id":18502},{"search_name":"NetIX (Istanbul, Turkey)","latitude":"40.993684","longitude":"28.829536","slug_name":"netix-istanbul-turkey","building_id":18202},{"search_name":"NetIX (Kiev, Ukraine)","latitude":"50.43788270676076","longitude":"30.49757480621338","slug_name":"netix-kiev-ukraine","building_id":18755},{"search_name":"NetIX (London, United Kingdom)","latitude":"51.511549","longitude":"-0.0029163","slug_name":"netix-london-united-kingdom","building_id":8075},{"search_name":"NetIX (Paris, France)","latitude":"48.8560137","longitude":"2.3834406","slug_name":"netix-paris-france","building_id":8719},{"search_name":"NetIX (Prague, Czech Republic)","latitude":"50.0601656","longitude":"14.4829317","slug_name":"netix-prague-czech-republic","building_id":9959},{"search_name":"NetIX (Ruse, Bulgaria)","latitude":"43.852127","longitude":"25.951498","slug_name":"netix-ruse-bulgaria","building_id":20153},{"search_name":"NetIX (Sofia, Bulgaria)","latitude":"42.7026051","longitude":"23.3059837","slug_name":"netix-sofia-bulgaria","building_id":18654},{"search_name":"NetIX (Sofia, Bulgaria)","latitude":"42.656551","longitude":"23.369860","slug_name":"netix-sofia-bulgaria","building_id":19293},{"search_name":"NetIX (Sofia, Bulgaria)","latitude":"42.625932","longitude":"23.376693","slug_name":"netix-sofia-bulgaria","building_id":18055},{"search_name":"Netnod COMIX (Copenhagen, Denmark)","latitude":"55.7284884","longitude":"12.3761805","slug_name":"netnod-comix-copenhagen-denmark","building_id":8273},{"search_name":"Netnod COMIX (Copenhagen, Denmark)","latitude":"55.661921","longitude":"12.377342","slug_name":"netnod-comix-copenhagen-denmark","building_id":8691},{"search_name":"Netnod COMIX (Copenhagen, Denmark)","latitude":"55.670181","longitude":"12.538540","slug_name":"netnod-comix-copenhagen-denmark","building_id":19298},{"search_name":"Netnod-GBG (Gothenburg, Sweden)","latitude":"57.701235","longitude":"11.967105","slug_name":"netnod-gbg-gothenburg-sweden","building_id":15006},{"search_name":"Netnod-LUL (Lule\u00e5, Sweden)","latitude":"65.583890","longitude":"22.152275","slug_name":"netnod-lul-lule-sweden","building_id":18807},{"search_name":"Netnod-MMO (Malm\u00f6, Sweden)","latitude":"55.596640","longitude":"13.001560","slug_name":"netnod-mmo-malm-sweden","building_id":15005},{"search_name":"Netnod-MMO (Malm\u00f6, Sweden)","latitude":"55.6068184","longitude":"12.998449","slug_name":"netnod-mmo-malm-sweden","building_id":18710},{"search_name":"Netnod-STH (Stockholm, Sweden)","latitude":"59.332268","longitude":"18.062797","slug_name":"netnod-sth-stockholm-sweden","building_id":8132},{"search_name":"Netnod-STH (Stockholm, Sweden)","latitude":"59.4224709","longitude":"17.9180729","slug_name":"netnod-sth-stockholm-sweden","building_id":8606},{"search_name":"Netnod-STH (Stockholm, Sweden)","latitude":"59.2635622","longitude":"18.1048429","slug_name":"netnod-sth-stockholm-sweden","building_id":18026},{"search_name":"Netnod-STH (Stockholm, Sweden)","latitude":"59.3626978","longitude":"17.9555879","slug_name":"netnod-sth-stockholm-sweden","building_id":8607},{"search_name":"Netnod-STH (Stockholm, Sweden)","latitude":"59.306954","longitude":"18.130262","slug_name":"netnod-sth-stockholm-sweden","building_id":19633},{"search_name":"Netnod-SVL (Sundsvall, Sweden)","latitude":"62.4000","longitude":"17.3167","slug_name":"netnod-svl-sundsvall-sweden","building_id":19279},{"search_name":"NeutrlNX (Pretoria, South Africa)","latitude":"-25.872981","longitude":"28.183466","slug_name":"neutrlnx-pretoria-south-africa","building_id":18901},{"search_name":"NFX (Prague, Czech Republic)","latitude":"50.101665","longitude":"14.343662","slug_name":"nfx-prague-czech-republic","building_id":20583},{"search_name":"NFX (Prague, Czech Republic)","latitude":"50.0809788","longitude":"14.4517755","slug_name":"nfx-prague-czech-republic","building_id":10271},{"search_name":"NFX (Prague, Czech Republic)","latitude":"50.0601656","longitude":"14.4829317","slug_name":"nfx-prague-czech-republic","building_id":9959},{"search_name":"NIGX (Manila, Philippines)","latitude":"14.609620","longitude":"121.005890","slug_name":"nigx-manila-philippines","building_id":8759},{"search_name":"NIX (Bangkok, Thailand)","latitude":"13.756331","longitude":"100.501765","slug_name":"nix-bangkok-thailand","building_id":20188},{"search_name":"NIX.CZ (Prague, Czech Republic)","latitude":"50.0621517","longitude":"14.428607","slug_name":"nix-cz-prague-czech-republic","building_id":10273},{"search_name":"NIX.CZ (Prague, Czech Republic)","latitude":"50.0809788","longitude":"14.4517755","slug_name":"nix-cz-prague-czech-republic","building_id":10271},{"search_name":"NIX.CZ (Prague, Czech Republic)","latitude":"50.0601656","longitude":"14.4829317","slug_name":"nix-cz-prague-czech-republic","building_id":9959},{"search_name":"NIX.CZ (Prague, Czech Republic)","latitude":"50.0820185","longitude":"14.5333505","slug_name":"nix-cz-prague-czech-republic","building_id":17843},{"search_name":"NIX.CZ (Prague, Czech Republic)","latitude":"50.0781243","longitude":"14.4752765","slug_name":"nix-cz-prague-czech-republic","building_id":10272},{"search_name":"NIX1 (Oslo, Norway)","latitude":"59.943085","longitude":"10.717608","slug_name":"nix1-oslo-norway","building_id":8123},{"search_name":"NIX1 (Oslo, Norway)","latitude":"59.9384333","longitude":"10.8349712","slug_name":"nix1-oslo-norway","building_id":15052},{"search_name":"NIX1 (Oslo, Norway)","latitude":"59.9247264","longitude":"10.8101831","slug_name":"nix1-oslo-norway","building_id":8686},{"search_name":"NIX2 (Oslo, Norway)","latitude":"59.9178457","longitude":"10.7396994","slug_name":"nix2-oslo-norway","building_id":8806},{"search_name":"NIXI (Ahmedabad, India)","latitude":"23.1922654","longitude":"72.6394665","slug_name":"nixi-ahmedabad-india","building_id":18376},{"search_name":"NIXI (Bangalore, India)","latitude":"12.8393350","longitude":"77.6605280","slug_name":"nixi-bangalore-india","building_id":19957},{"search_name":"NIXI (Chennai, India)","latitude":"12.984653169754926","longitude":"80.25182247161865","slug_name":"nixi-chennai-india","building_id":15107},{"search_name":"NIXI (Delhi, India)","latitude":"28.568410366011797","longitude":"77.33439445495605","slug_name":"nixi-delhi-india","building_id":15105},{"search_name":"NIXI (Guwahati, India)","latitude":"26.143531","longitude":"91.658822","slug_name":"nixi-guwahati-india","building_id":20561},