{"latlon":[{"latlon":"-15.186995,12.156031"},{"latlon":"-13.866878,12.531031"},{"latlon":"-12.580063,13.407788"},{"latlon":"-10.703013,13.782300"},{"latlon":"-7.233385,12.866675"},{"latlon":"-6.141003,12.352125"},{"latlon":"-5.556628,12.189820"},{"latlon":"-8.776646,13.372339"},{"latlon":"-8.812877,13.235034"}],"cables":[{"cable_id":1374,"name":"Angola Domestic Network System (ADONES)","id":"angola-domestic-network-system-adones"},{"cable_id":1219,"name":"SAT-3/WASC","id":"sat-3wasc"},{"cable_id":1709,"name":"South Atlantic Cable System (SACS)","id":"south-atlantic-cable-system-sacs"},{"cable_id":1629,"name":"Africa Coast to Europe (ACE)","id":"africa-coast-to-europe-ace"},{"cable_id":1560,"name":"West African Cable System (WACS)","id":"west-african-cable-system-wacs"}],"landing_points":[{"name":"Namibe, Angola","landing_point_id":11508,"id":"namibe-angola"},{"name":"Lucira, Angola","landing_point_id":11507,"id":"lucira-angola"},{"name":"Benguela, Angola","landing_point_id":11506,"id":"benguela-angola"},{"name":"Porto Amboim, Angola","landing_point_id":11505,"id":"porto-amboim-angola"},{"name":"N'zeto, Angola","landing_point_id":11504,"id":"nzeto-angola"},{"name":"Soyo, Angola","landing_point_id":11503,"id":"soyo-angola"},{"name":"Cabinda, Angola","landing_point_id":10857,"id":"cabinda-angola"},{"name":"Cacuaco, Angola","landing_point_id":5775,"id":"cacuaco-angola"},{"name":"Luanda, Angola","landing_point_id":4190,"id":"luanda-angola"},{"name":"Sangano, Angola","landing_point_id":10727,"id":"sangano-angola"}],"name":"Angola"}
