{"latlon":[{"latlon":"12.584672,-81.700565"},{"latlon":"3.883699,-77.040313"},{"latlon":"11.482914,-72.952718"},{"latlon":"10.386723,-75.505695"},{"latlon":"9.496294,-75.558576"},{"latlon":"10.940434,-74.779767"}],"cables":[{"cable_id":1843,"name":"San Andres Isla Tolu Submarine Cable (SAIT)","id":"san-andres-isla-tolu-submarine-cable-sait"},{"cable_id":1084,"name":"South American Crossing (SAC)/Latin American Nautilus (LAN)","id":"south-american-crossing-saclatin-american-nautilus-lan"},{"cable_id":1078,"name":"ARCOS ","id":"arcos"},{"cable_id":1727,"name":"Pacific Caribbean Cable System (PCCS)","id":"pacific-caribbean-cable-system-pccs"},{"cable_id":1686,"name":"America Movil Submarine Cable System-1 (AMX-1)","id":"america-movil-submarine-cable-system-1-amx-1"},{"cable_id":1071,"name":"Maya-1","id":"maya-1"},{"cable_id":1076,"name":"GlobeNet","id":"globenet"},{"cable_id":1073,"name":"Pan American (PAN-AM)","id":"pan-american-pan-am"},{"cable_id":1083,"name":"South America-1 (SAm-1)","id":"south-america-1-sam-1"},{"cable_id":1554,"name":"Colombia-Florida Subsea Fiber (CFX-1)","id":"colombia-florida-subsea-fiber-cfx-1"}],"landing_points":[{"name":"San Andres, Colombia","landing_point_id":15182,"id":"san-andres-colombia"},{"name":"Buenaventura, Colombia","landing_point_id":5806,"id":"buenaventura-colombia"},{"name":"Riohacha, Colombia","landing_point_id":5807,"id":"riohacha-colombia"},{"name":"Cartagena, Colombia","landing_point_id":5693,"id":"cartagena-colombia"},{"name":"Tolu, Colombia","landing_point_id":5808,"id":"tolu-colombia"},{"name":"Barranquilla, Colombia","landing_point_id":4315,"id":"barranquilla-colombia"}],"name":"Colombia"}
