{"latlon":[{"latlon":"34.983294,33.999966"},{"latlon":"35.297258,33.896841"},{"latlon":"35.299114,33.236294"},{"latlon":"34.766399,32.466568"},{"latlon":"34.828509,33.603579"}],"cables":[{"cable_id":1304,"name":"CIOS","id":"cios"},{"cable_id":1705,"name":"Turcyos-2","id":"turcyos-2"},{"cable_id":1341,"name":"Turcyos-1","id":"turcyos-1"},{"cable_id":1713,"name":"Tamares North","id":"tamares-north"},{"cable_id":1523,"name":"Hawk","id":"hawk"},{"cable_id":1740,"name":"POSEIDON","id":"poseidon"},{"cable_id":1303,"name":"Aphrodite 2","id":"aphrodite-2"},{"cable_id":1031,"name":"SeaMeWe-3","id":"seamewe-3"},{"cable_id":1065,"name":"Lev Submarine System","id":"lev-submarine-system"},{"cable_id":1305,"name":"CADMOS","id":"cadmos"},{"cable_id":1306,"name":"UGARIT","id":"ugarit"},{"cable_id":1185,"name":"MedNautilus Submarine System","id":"mednautilus-submarine-system"},{"cable_id":1573,"name":"TE North/TGN-Eurasia/SEACOM/Alexandros","id":"te-northtgn-eurasiaseacomalexandros"}],"landing_points":[{"name":"Ayia Napa, Cyprus","landing_point_id":6029,"id":"ayia-napa-cyprus"},{"name":"Tricomo, Cyprus","landing_point_id":10388,"id":"tricomo-cyprus"},{"name":"Girne, Cyprus","landing_point_id":9661,"id":"girne-cyprus"},{"name":"Yeroskipos, Cyprus","landing_point_id":5811,"id":"yeroskipos-cyprus"},{"name":"Pentaskhinos, Cyprus","landing_point_id":5812,"id":"pentaskhinos-cyprus"}],"name":"Cyprus"}
