{"latlon":[{"latlon":"47.218054,-1.553045"},{"latlon":"43.125282,5.930350"},{"latlon":"41.919326,8.738650"},{"latlon":"43.102919,5.878104"},{"latlon":"42.636513,8.937087"},{"latlon":"43.552919,7.017361"},{"latlon":"49.283287,-1.650017"},{"latlon":"47.811315,-4.338688"},{"latlon":"49.860435,0.708478"},{"latlon":"48.730260,-3.459928"},{"latlon":"48.534752,-2.768083"},{"latlon":"50.178794,1.493438"},{"latlon":"50.952915,1.852813"},{"latlon":"43.293153,5.372636"}],"cables":[{"cable_id":1848,"name":"COPA","id":"copa"},{"cable_id":1559,"name":"SeaMeWe-5","id":"seamewe-5"},{"cable_id":1428,"name":"Corse-Continent 5 (CC5)","id":"corse-continent-5-cc5"},{"cable_id":1427,"name":"Corse-Continent 4 (CC4)","id":"corse-continent-4-cc4"},{"cable_id":1700,"name":"INGRID","id":"ingrid"},{"cable_id":1128,"name":"TAGIDE 2","id":"tagide-2"},{"cable_id":1031,"name":"SeaMeWe-3","id":"seamewe-3"},{"cable_id":1043,"name":"TAT-14","id":"tat-14"},{"cable_id":1889,"name":"Ireland-France Cable-1 (IFC-1)","id":"ireland-france-cable-1-ifc-1"},{"cable_id":1697,"name":"High-capacity Undersea Guernsey Optical-fibre (HUGO)","id":"high-capacity-undersea-guernsey-optical-fibre-hugo"},{"cable_id":1213,"name":"Apollo","id":"apollo"},{"cable_id":1028,"name":"FLAG Atlantic-1 (FA-1)","id":"flag-atlantic-1-fa-1"},{"cable_id":1323,"name":"Circe South","id":"circe-south"},{"cable_id":1343,"name":"Ulysses","id":"ulysses"},{"cable_id":1739,"name":"Asia Africa Europe-1 (AAE-1)","id":"asia-africa-europe-1-aae-1"},{"cable_id":1035,"name":"SeaMeWe-4","id":"seamewe-4"},{"cable_id":1366,"name":"Med Cable Network","id":"med-cable-network"},{"cable_id":1512,"name":"Atlas Offshore","id":"atlas-offshore"},{"cable_id":1536,"name":"IMEWE","id":"imewe"},{"cable_id":1523,"name":"Hawk","id":"hawk"},{"cable_id":1573,"name":"TE North/TGN-Eurasia/SEACOM/Alexandros","id":"te-northtgn-eurasiaseacomalexandros"},{"cable_id":1629,"name":"Africa Coast to Europe (ACE)","id":"africa-coast-to-europe-ace"}],"landing_points":[{"name":"Nantes, France","landing_point_id":3286,"id":"nantes-france"},{"name":"Toulon, France","landing_point_id":5346,"id":"toulon-france"},{"name":"Ajaccio, France","landing_point_id":6053,"id":"ajaccio-france"},{"name":"La Seyne, France","landing_point_id":7766,"id":"la-seyne-france"},{"name":"L’Île-Rousse, France","landing_point_id":7765,"id":"lle-rousse-france"},{"name":"Cannes, France","landing_point_id":6279,"id":"cannes-france"},{"name":"Surville, France","landing_point_id":10378,"id":"surville-france"},{"name":"Penmarch, France","landing_point_id":3119,"id":"penmarch-france"},{"name":"St. Valéry, France","landing_point_id":5331,"id":"st-valry-france"},{"name":"Lannion, France","landing_point_id":5837,"id":"lannion-france"},{"name":"Plerin, France","landing_point_id":5836,"id":"plerin-france"},{"name":"Cayeux-sur-Mer, France","landing_point_id":6051,"id":"cayeux-sur-mer-france"},{"name":"Calais, France","landing_point_id":4490,"id":"calais-france"},{"name":"Marseille, France","landing_point_id":3210,"id":"marseille-france"}],"name":"France"}
