{"latlon":[{"latlon":"29.245796,50.312067"},{"latlon":"29.072457,49.478083"},{"latlon":"29.570796,50.521149"},{"latlon":"25.681247,57.797415"},{"latlon":"25.298240,60.629641"},{"latlon":"27.187204,56.274369"},{"latlon":"28.970015,50.842731"}],"cables":[{"cable_id":1250,"name":"Kuwait-Iran ","id":"kuwait-iran"},{"cable_id":1689,"name":"Pishgaman Oman Iran (POI) Network","id":"pishgaman-oman-iran-poi-network"},{"cable_id":1695,"name":"OMRAN/EPEG Cable System","id":"omranepeg-cable-system"},{"cable_id":1308,"name":"UAE-Iran","id":"uae-iran"},{"cable_id":1346,"name":"FALCON","id":"falcon"},{"cable_id":1598,"name":"Gulf Bridge International Cable System (GBICS)/Middle East North Africa (MENA) Cable System","id":"gulf-bridge-international-cable-system-gbicsmiddle-east-north-africa-mena-cable-system"}],"landing_points":[{"name":"Khark Island, Iran","landing_point_id":10603,"id":"khark-island-iran"},{"name":"Soroosh Platform, Iran","landing_point_id":10604,"id":"soroosh-platform-iran"},{"name":"Ganaveh, Iran","landing_point_id":5990,"id":"ganaveh-iran"},{"name":"Jask, Iran","landing_point_id":6031,"id":"jask-iran"},{"name":"Chabahar, Iran","landing_point_id":8849,"id":"chabahar-iran"},{"name":"Bandar Abbas, Iran","landing_point_id":8848,"id":"bandar-abbas-iran"},{"name":"Bushehr, Iran","landing_point_id":9683,"id":"bushehr-iran"}],"name":"Iran"}
