{"latlon":[{"latlon":"51.563950,3.496172"},{"latlon":"12.150687,-68.276694"},{"latlon":"12.163773,-68.284116"},{"latlon":"52.616391,4.616386"},{"latlon":"52.460922,4.612773"},{"latlon":"52.486313,4.656913"},{"latlon":"52.205161,4.396464"},{"latlon":"52.370395,4.527226"}],"cables":[{"cable_id":1819,"name":"Farland North","id":"farland-north"},{"cable_id":1494,"name":"Amerigo Vespucci","id":"amerigo-vespucci"},{"cable_id":1774,"name":"Jerry Newton","id":"jerry-newton"},{"cable_id":1365,"name":"UK-Netherlands 14","id":"uk-netherlands-14"},{"cable_id":1343,"name":"Ulysses","id":"ulysses"},{"cable_id":1143,"name":"Atlantic Crossing-1 (AC-1)","id":"atlantic-crossing-1-ac-1"},{"cable_id":1043,"name":"TAT-14","id":"tat-14"},{"cable_id":1137,"name":"Circe North","id":"circe-north"},{"cable_id":1538,"name":"Concerto","id":"concerto"}],"landing_points":[{"name":"Domburg, Netherlands","landing_point_id":3144,"id":"domburg-netherlands"},{"name":"Kralendijk, Bonaire, Netherlands","landing_point_id":14635,"id":"kralendijk-bonaire-netherlands"},{"name":"North Salina, Bonaire, Netherlands","landing_point_id":10730,"id":"north-salina-bonaire-netherlands"},{"name":"Egmond, Netherlands","landing_point_id":8409,"id":"egmond-netherlands"},{"name":"Ijmuiden, Netherlands","landing_point_id":10414,"id":"ijmuiden-netherlands"},{"name":"Beverwijk, Netherlands","landing_point_id":3080,"id":"beverwijk-netherlands"},{"name":"Katwijk, Netherlands","landing_point_id":3283,"id":"katwijk-netherlands"},{"name":"Zandvoort, Netherlands","landing_point_id":3141,"id":"zandvoort-netherlands"}],"name":"Netherlands"}
