{"latlon":[{"latlon":"1.293661,103.853057"},{"latlon":"1.327255,103.946612"},{"latlon":"1.258896,103.704229"},{"latlon":"1.338193,103.647101"},{"latlon":"1.309286,103.904718"},{"latlon":"1.389071,103.987042"}],"cables":[{"cable_id":1744,"name":"APX-West","id":"apx-west"},{"cable_id":1683,"name":"Australia-Singapore Cable (ASC)","id":"australia-singapore-cable-asc"},{"cable_id":1617,"name":"Asia Pacific Gateway (APG)","id":"asia-pacific-gateway-apg"},{"cable_id":1680,"name":"PGASCOM","id":"pgascom"},{"cable_id":1559,"name":"SeaMeWe-5","id":"seamewe-5"},{"cable_id":1031,"name":"SeaMeWe-3","id":"seamewe-3"},{"cable_id":1049,"name":"APCN-2","id":"apcn-2"},{"cable_id":1679,"name":"Asia Submarine-cable Express (ASE)/Cahaya Malaysia","id":"asia-submarine-cable-express-asecahaya-malaysia"},{"cable_id":1535,"name":"Matrix Cable System","id":"matrix-cable-system"},{"cable_id":1561,"name":"Moratelindo International Cable System-1 (MIC-1)","id":"moratelindo-international-cable-system-1-mic-1"},{"cable_id":1238,"name":"Thailand-Indonesia-Singapore (TIS)","id":"thailand-indonesia-singapore-tis"},{"cable_id":1179,"name":"i2i Cable Network (i2icn)","id":"i2i-cable-network-i2icn"},{"cable_id":1252,"name":"Tata TGN-Tata Indicom","id":"tata-tgn-tata-indicom"},{"cable_id":1507,"name":"Asia-America Gateway (AAG) Cable System","id":"asia-america-gateway-aag-cable-system"},{"cable_id":1534,"name":"Tata TGN-Intra Asia (TGN-IA)","id":"tata-tgn-intra-asia-tgn-ia"},{"cable_id":1035,"name":"SeaMeWe-4","id":"seamewe-4"},{"cable_id":1592,"name":"EAC-C2C","id":"eac-c2c"},{"cable_id":1597,"name":"JAKABARE","id":"jakabare"},{"cable_id":1604,"name":"Southeast Asia Japan Cable (SJC) ","id":"southeast-asia-japan-cable-sjc"},{"cable_id":1833,"name":"Jakarta-Bangka-Bintan-Batam-Singapore (B3JS)","id":"jakarta-bangka-bintan-batam-singapore-b3js"},{"cable_id":1785,"name":"Batam Singapore Cable System (BSCS)","id":"batam-singapore-cable-system-bscs"}],"landing_points":[{"name":"Singapore, Singapore","landing_point_id":3029,"id":"singapore-singapore"},{"name":"Tanah Merah, Singapore","landing_point_id":9135,"id":"tanah-merah-singapore"},{"name":"Sakra Island, Singapore","landing_point_id":10307,"id":"sakra-island-singapore"},{"name":"Tuas, Singapore","landing_point_id":5938,"id":"tuas-singapore"},{"name":"Katong, Singapore","landing_point_id":5939,"id":"katong-singapore"},{"name":"Changi South, Singapore","landing_point_id":5937,"id":"changi-south-singapore"},{"name":"Changi North, Singapore","landing_point_id":5940,"id":"changi-north-singapore"}],"name":"Singapore"}
