{"latlon":[{"latlon":"55.533284,12.916675"},{"latlon":"56.134748,12.588648"},{"latlon":"55.471077,12.963843"},{"latlon":"63.825858,20.262961"},{"latlon":"58.902911,17.946555"},{"latlon":"59.983379,18.816575"},{"latlon":"59.759649,18.701340"},{"latlon":"59.822735,18.764621"},{"latlon":"55.431331,13.828296"},{"latlon":"57.431037,18.845286"},{"latlon":"57.862970,19.055344"},{"latlon":"59.332208,18.062864"},{"latlon":"57.487482,12.076246"},{"latlon":"56.043831,12.695874"},{"latlon":"55.556819,12.918726"},{"latlon":"55.770393,12.955445"},{"latlon":"56.683186,12.683277"}],"cables":[{"cable_id":1765,"name":"IP-Only Denmark-Sweden","id":"ip-only-denmark-sweden"},{"cable_id":1730,"name":"Denmark-Sweden 17","id":"denmark-sweden-17"},{"cable_id":1261,"name":"Denmark-Sweden 16","id":"denmark-sweden-16"},{"cable_id":1271,"name":"Botnia","id":"botnia"},{"cable_id":1270,"name":"Latvia-Sweden 1 (LV-SE 1)","id":"latvia-sweden-1-lv-se-1"},{"cable_id":1208,"name":"Sweden-Finland Link (SFL)","id":"sweden-finland-link-sfl"},{"cable_id":1207,"name":"Sweden-Finland 4 (SFS-4)","id":"sweden-finland-4-sfs-4"},{"cable_id":1221,"name":"Sweden-Estonia (EE-S 1)","id":"sweden-estonia-ee-s-1"},{"cable_id":1199,"name":"Baltica","id":"baltica"},{"cable_id":1222,"name":"BCS East-West Interlink","id":"bcs-east-west-interlink"},{"cable_id":1364,"name":"Sweden-Latvia","id":"sweden-latvia"},{"cable_id":1340,"name":"Sweden-Finland 6","id":"sweden-finland-6"},{"cable_id":1760,"name":"GlobalConnect 2 (GC2)","id":"globalconnect-2-gc2"},{"cable_id":1218,"name":"Kattegat 1","id":"kattegat-1"},{"cable_id":1731,"name":"Denmark-Sweden 18","id":"denmark-sweden-18"},{"cable_id":1259,"name":"Denmark-Sweden 15","id":"denmark-sweden-15"},{"cable_id":1544,"name":"Scandinavian Ring North","id":"scandinavian-ring-north"},{"cable_id":1545,"name":"Scandinavian Ring South","id":"scandinavian-ring-south"},{"cable_id":1541,"name":"Danica North","id":"danica-north"},{"cable_id":1688,"name":"Kattegat 2","id":"kattegat-2"},{"cable_id":1609,"name":"BCS North - Phase 1","id":"bcs-north---phase-1"},{"cable_id":1624,"name":"Baltic Sea Submarine Cable","id":"baltic-sea-submarine-cable"}],"landing_points":[{"name":"Klagshamn, Sweden","landing_point_id":14586,"id":"klagshamn-sweden"},{"name":"Kristinelund, Sweden","landing_point_id":10739,"id":"kristinelund-sweden"},{"name":"Velling, Sweden","landing_point_id":14584,"id":"velling-sweden"},{"name":"Umeå, Sweden","landing_point_id":6004,"id":"ume-sweden"},{"name":"Nynashamn, Sweden","landing_point_id":5951,"id":"nynashamn-sweden"},{"name":"Väddö, Sweden","landing_point_id":6000,"id":"vdd-sweden"},{"name":"Norrtalge, Sweden","landing_point_id":6171,"id":"norrtalge-sweden"},{"name":"Stavsnas, Sweden","landing_point_id":5952,"id":"stavsnas-sweden"},{"name":"Ystad, Sweden","landing_point_id":5954,"id":"ystad-sweden"},{"name":"Katthammarsvik, Sweden","landing_point_id":10365,"id":"katthammarsvik-sweden"},{"name":"Farosund, Sweden","landing_point_id":7412,"id":"farosund-sweden"},{"name":"Stockholm, Sweden","landing_point_id":3063,"id":"stockholm-sweden"},{"name":"Kungsbacka, Sweden","landing_point_id":10605,"id":"kungsbacka-sweden"},{"name":"Helsingborg, Sweden","landing_point_id":3268,"id":"helsingborg-sweden"},{"name":"Bunkeflostand, Sweden","landing_point_id":8401,"id":"bunkeflostand-sweden"},{"name":"Barsebäck, Sweden","landing_point_id":8403,"id":"barsebck-sweden"},{"name":"Skalvik, Sweden","landing_point_id":10323,"id":"skalvik-sweden"}],"name":"Sweden"}
