{"latlon":[{"latlon":"58.943146,-2.717155"},{"latlon":"58.670294,-3.376579"},{"latlon":"54.753694,-5.718716"},{"latlon":"55.541292,-4.659928"},{"latlon":"57.153791,-2.106804"},{"latlon":"55.793342,-4.867301"},{"latlon":"55.751839,-5.028092"},{"latlon":"56.008284,-5.321207"},{"latlon":"56.019416,-5.365787"},{"latlon":"55.501936,-5.332096"},{"latlon":"55.476546,-5.533414"},{"latlon":"55.780159,-4.900455"},{"latlon":"55.643635,-5.141422"},{"latlon":"55.693049,-4.889371"},{"latlon":"55.847737,-6.106314"},{"latlon":"55.846760,-6.089908"},{"latlon":"55.636116,-6.125406"},{"latlon":"55.565510,-5.697574"},{"latlon":"55.833674,-5.953824"},{"latlon":"55.891682,-5.614566"},{"latlon":"56.688557,-6.093960"},{"latlon":"56.621858,-6.070279"},{"latlon":"56.455842,-5.669351"},{"latlon":"56.437776,-5.475797"},{"latlon":"56.722541,-5.245377"},{"latlon":"57.934064,-5.196207"},{"latlon":"58.209064,-6.310757"},{"latlon":"57.769416,-7.008364"},{"latlon":"57.603693,-7.163345"},{"latlon":"57.436310,-6.581655"},{"latlon":"57.366681,-7.274136"},{"latlon":"57.059357,-5.906460"},{"latlon":"57.008479,-5.820425"},{"latlon":"56.503791,-6.808511"},{"latlon":"56.582112,-6.272378"},{"latlon":"57.105549,-7.328139"},{"latlon":"57.081525,-7.312173"},{"latlon":"57.025275,-7.449477"},{"latlon":"59.279767,-2.939519"},{"latlon":"59.350470,-2.959147"},{"latlon":"55.742756,-4.943863"},{"latlon":"57.073615,-7.302212"},{"latlon":"55.858577,-5.063590"},{"latlon":"55.869417,-5.019986"},{"latlon":"56.721565,-5.233658"},{"latlon":"49.919908,-6.308169"},{"latlon":"52.157895,1.590606"},{"latlon":"50.318833,-3.610905"},{"latlon":"54.857503,-5.809879"},{"latlon":"55.240218,-4.854215"},{"latlon":"54.642855,-5.538785"},{"latlon":"54.843733,-5.115543"},{"latlon":"54.713655,-5.808170"},{"latlon":"55.637581,-4.783512"},{"latlon":"54.302035,-5.559390"},{"latlon":"54.210628,-3.357145"},{"latlon":"54.166976,-4.423893"},{"latlon":"54.222445,-4.691422"},{"latlon":"54.542757,-5.484390"},{"latlon":"54.099984,-4.566666"},{"latlon":"52.715219,1.693536"},{"latlon":"50.351743,-3.578385"},{"latlon":"49.423326,-2.558025"},{"latlon":"49.509556,-2.537614"},{"latlon":"50.078501,-5.698453"},{"latlon":"50.043052,-5.654507"},{"latlon":"50.024790,-5.174527"},{"latlon":"50.828110,-4.544401"},{"latlon":"53.647933,-3.006364"},{"latlon":"50.063560,-5.675064"},{"latlon":"52.471371,1.729180"},{"latlon":"50.076060,-5.698746"},{"latlon":"51.557798,-4.169596"},{"latlon":"51.222251,-2.975017"},{"latlon":"58.615314,-3.346208"},{"latlon":"50.819028,0.366681"},{"latlon":"51.358872,1.439434"},{"latlon":"51.125571,1.317560"},{"latlon":"51.358579,1.439337"},{"latlon":"52.207114,1.620294"},{"latlon":"52.180844,1.613067"},{"latlon":"53.808675,-3.050749"},{"latlon":"55.130745,-6.676187"},{"latlon":"53.201742,-3.027556"},{"latlon":"60.749883,-2.399919"},{"latlon":"60.333086,-4.333414"},{"latlon":"57.666877,-2.523650"},{"latlon":"58.833282,-2.900114"},{"latlon":"59.995977,-1.238689"},{"latlon":"60.003985,-1.323797"},{"latlon":"53.306039,-4.630387"},{"latlon":"51.293735,-3.010905"}],"cables":[{"cable_id":1836,"name":"Northern Lights","id":"northern-lights"},{"cable_id":1834,"name":"Lanis-3","id":"lanis-3"},{"cable_id":1203,"name":"Tampnet Offshore FOC Network","id":"tampnet-offshore-foc-network"},{"cable_id":1827,"name":"BT Highlands and Islands Submarine Cable System","id":"bt-highlands-and-islands-submarine-cable-system"},{"cable_id":1826,"name":"Isles of Scilly Cable","id":"isles-of-scilly-cable"},{"cable_id":1819,"name":"Farland North","id":"farland-north"},{"cable_id":1784,"name":"Channel Islands-9 Liberty Submarine Cable","id":"channel-islands-9-liberty-submarine-cable"},{"cable_id":1614,"name":"Scotland-Northern Ireland 2","id":"scotland-northern-ireland-2"},{"cable_id":1387,"name":"Scotland-Northern Ireland 1","id":"scotland-northern-ireland-1"},{"cable_id":1754,"name":"Sirius North","id":"sirius-north"},{"cable_id":1752,"name":"BT-MT-1","id":"bt-mt-1"},{"cable_id":1751,"name":"Lanis-2","id":"lanis-2"},{"cable_id":1616,"name":"Lanis-1","id":"lanis-1"},{"cable_id":1365,"name":"UK-Netherlands 14","id":"uk-netherlands-14"},{"cable_id":1703,"name":"UK-Channel Islands-7","id":"uk-channel-islands-7"},{"cable_id":1702,"name":"Guernsey-Jersey-4","id":"guernsey-jersey-4"},{"cable_id":1697,"name":"High-capacity Undersea Guernsey Optical-fibre (HUGO)","id":"high-capacity-undersea-guernsey-optical-fibre-hugo"},{"cable_id":1143,"name":"Atlantic Crossing-1 (AC-1)","id":"atlantic-crossing-1-ac-1"},{"cable_id":1027,"name":"FLAG Europe-Asia (FEA)","id":"flag-europe-asia-fea"},{"cable_id":1704,"name":"UK-Channel Islands-8","id":"uk-channel-islands-8"},{"cable_id":1031,"name":"SeaMeWe-3","id":"seamewe-3"},{"cable_id":1043,"name":"TAT-14","id":"tat-14"},{"cable_id":1080,"name":"Hibernia Atlantic","id":"hibernia-atlantic"},{"cable_id":1081,"name":"Yellow","id":"yellow"},{"cable_id":1213,"name":"Apollo","id":"apollo"},{"cable_id":1028,"name":"FLAG Atlantic-1 (FA-1)","id":"flag-atlantic-1-fa-1"},{"cable_id":1054,"name":"Celtic","id":"celtic"},{"cable_id":1223,"name":"ESAT-1","id":"esat-1"},{"cable_id":1224,"name":"ESAT-2","id":"esat-2"},{"cable_id":1835,"name":"Swansea-Brean","id":"swansea-brean"},{"cable_id":1205,"name":"Solas","id":"solas"},{"cable_id":1149,"name":"Tata TGN-Atlantic","id":"tata-tgn-atlantic"},{"cable_id":1173,"name":"Tata TGN-Western Europe","id":"tata-tgn-western-europe"},{"cable_id":1240,"name":"FARICE-1","id":"farice-1"},{"cable_id":1137,"name":"Circe North","id":"circe-north"},{"cable_id":1323,"name":"Circe South","id":"circe-south"},{"cable_id":1324,"name":"Tangerine","id":"tangerine"},{"cable_id":1343,"name":"Ulysses","id":"ulysses"},{"cable_id":1357,"name":"Glo-1","id":"glo-1"},{"cable_id":1539,"name":"Pan European Crossing (UK-Belgium)","id":"pan-european-crossing-uk-belgium"},{"cable_id":1538,"name":"Concerto","id":"concerto"},{"cable_id":1547,"name":"Pan European Crossing (UK-Ireland)","id":"pan-european-crossing-uk-ireland"},{"cable_id":1753,"name":"E-LLAN","id":"e-llan"},{"cable_id":1092,"name":"Sirius South","id":"sirius-south"},{"cable_id":1685,"name":"Geo-Eirgrid","id":"geo-eirgrid"},{"cable_id":1576,"name":"SHEFA-2","id":"shefa-2"},{"cable_id":1580,"name":"Europe India Gateway (EIG)","id":"europe-india-gateway-eig"},{"cable_id":1684,"name":"Emerald Bridge Fibres","id":"emerald-bridge-fibres"},{"cable_id":1641,"name":"CeltixConnect","id":"celtixconnect"},{"cable_id":1560,"name":"West African Cable System (WACS)","id":"west-african-cable-system-wacs"},{"cable_id":1673,"name":"Hibernia Express","id":"hibernia-express"}],"landing_points":[{"name":"Skaill, United Kingdom","landing_point_id":16021,"id":"skaill-united-kingdom"},{"name":"Dunnet Head, United Kingdom","landing_point_id":16020,"id":"dunnet-head-united-kingdom"},{"name":"Whitehead, United Kingdom","landing_point_id":16018,"id":"whitehead-united-kingdom"},{"name":"Troon, United Kingdom","landing_point_id":11461,"id":"troon-united-kingdom"},{"name":"Aberdeen, United Kingdom","landing_point_id":3537,"id":"aberdeen-united-kingdom"},{"name":"Largs, United Kingdom","landing_point_id":15837,"id":"largs-united-kingdom"},{"name":"Kilchatten Bay, United Kingdom","landing_point_id":15838,"id":"kilchatten-bay-united-kingdom"},{"name":"Otter Ferry, United Kingdom","landing_point_id":15839,"id":"otter-ferry-united-kingdom"},{"name":"Achnaba, United Kingdom","landing_point_id":15840,"id":"achnaba-united-kingdom"},{"name":"Blackwaterfoot, United Kingdom","landing_point_id":15841,"id":"blackwaterfoot-united-kingdom"},{"name":"Ardnacross, United Kingdom","landing_point_id":15842,"id":"ardnacross-united-kingdom"},{"name":"Down Craig, United Kingdom","landing_point_id":15843,"id":"down-craig-united-kingdom"},{"name":"Corrie, United Kingdom","landing_point_id":15844,"id":"corrie-united-kingdom"},{"name":"Ardneil Bay, United Kingdom","landing_point_id":15845,"id":"ardneil-bay-united-kingdom"},{"name":"Port Askaig, United Kingdom","landing_point_id":15846,"id":"port-askaig-united-kingdom"},{"name":"Feolin Ferry, United Kingdom","landing_point_id":15847,"id":"feolin-ferry-united-kingdom"},{"name":"Lavagulin, United Kingdom","landing_point_id":15848,"id":"lavagulin-united-kingdom"},{"name":"Glenbarr, United Kingdom","landing_point_id":15849,"id":"glenbarr-united-kingdom"},{"name":"Craighouse, United Kingdom","landing_point_id":15850,"id":"craighouse-united-kingdom"},{"name":"Ormsary, United Kingdom","landing_point_id":15851,"id":"ormsary-united-kingdom"},{"name":"Kilchoan Ferry, United Kingdom","landing_point_id":15852,"id":"kilchoan-ferry-united-kingdom"},{"name":"Tobermory, United Kingdom","landing_point_id":15853,"id":"tobermory-united-kingdom"},{"name":"Duart Bay, United Kingdom","landing_point_id":15854,"id":"duart-bay-united-kingdom"},{"name":"Ganavan Bay, United Kingdom","landing_point_id":15855,"id":"ganavan-bay-united-kingdom"},{"name":"Corran, United Kingdom","landing_point_id":15856,"id":"corran-united-kingdom"},{"name":"Ardmair, United Kingdom","landing_point_id":15857,"id":"ardmair-united-kingdom"},{"name":"Branahuie Bay, United Kingdom","landing_point_id":15858,"id":"branahuie-bay-united-kingdom"},{"name":"Leverburgh, United Kingdom","landing_point_id":15859,"id":"leverburgh-united-kingdom"},{"name":"Lochmaddy, United Kingdom","landing_point_id":15860,"id":"lochmaddy-united-kingdom"},{"name":"Dunvegan, United Kingdom","landing_point_id":15861,"id":"dunvegan-united-kingdom"},{"name":"Sandwick Village, United Kingdom","landing_point_id":15862,"id":"sandwick-village-united-kingdom"},{"name":"Ardvasar, United Kingdom","landing_point_id":15863,"id":"ardvasar-united-kingdom"},{"name":"Mallaigvaig, United Kingdom","landing_point_id":15864,"id":"mallaigvaig-united-kingdom"},{"name":"Scarinish, United Kingdom","landing_point_id":15865,"id":"scarinish-united-kingdom"},{"name":"Calgary, United Kingdom","landing_point_id":15866,"id":"calgary-united-kingdom"},{"name":"Ludag, United Kingdom","landing_point_id":15867,"id":"ludag-united-kingdom"},{"name":"Balla, United Kingdom","landing_point_id":15868,"id":"balla-united-kingdom"},{"name":"North Bay, United Kingdom","landing_point_id":15869,"id":"north-bay-united-kingdom"},{"name":"Bay of Tuquoy, United Kingdom","landing_point_id":15870,"id":"bay-of-tuquoy-united-kingdom"},{"name":"Aikerness , United Kingdom","landing_point_id":15871,"id":"aikerness-united-kingdom"},{"name":"Portachur Point, United Kingdom","landing_point_id":15872,"id":"portachur-point-united-kingdom"},{"name":"Coilleag, United Kingdom","landing_point_id":15873,"id":"coilleag-united-kingdom"},{"name":"Ardbeg Point, United Kingdom","landing_point_id":15874,"id":"ardbeg-point-united-kingdom"},{"name":"Ardyne Point, United Kingdom","landing_point_id":15875,"id":"ardyne-point-united-kingdom"},{"name":"Ardgour, United Kingdom","landing_point_id":15876,"id":"ardgour-united-kingdom"},{"name":"Porthcressa Beach, United Kingdom","landing_point_id":15836,"id":"porthcressa-beach-united-kingdom"},{"name":"Aldeburgh, United Kingdom","landing_point_id":3225,"id":"aldeburgh-united-kingdom"},{"name":"Blackpool Sands, United Kingdom","landing_point_id":14677,"id":"blackpool-sands-united-kingdom"},{"name":"Larne, United Kingdom","landing_point_id":11390,"id":"larne-united-kingdom"},{"name":"Girvan, United Kingdom","landing_point_id":13378,"id":"girvan-united-kingdom"},{"name":"Donaghadee, United Kingdom","landing_point_id":7732,"id":"donaghadee-united-kingdom"},{"name":"Portpatrick, United Kingdom","landing_point_id":7731,"id":"portpatrick-united-kingdom"},{"name":"Carrickfergus, United Kingdom","landing_point_id":13377,"id":"carrickfergus-united-kingdom"},{"name":"Saltcoats, United Kingdom","landing_point_id":13376,"id":"saltcoats-united-kingdom"},{"name":"Ballyhornan, United Kingdom","landing_point_id":13373,"id":"ballyhornan-united-kingdom"},{"name":"Silecroft Beach, United Kingdom","landing_point_id":13375,"id":"silecroft-beach-united-kingdom"},{"name":"Groudle Bay, United Kingdom","landing_point_id":13374,"id":"groudle-bay-united-kingdom"},{"name":"Peel, United Kingdom","landing_point_id":13372,"id":"peel-united-kingdom"},{"name":"Ballywater, United Kingdom","landing_point_id":13371,"id":"ballywater-united-kingdom"},{"name":"Port Grenaugh, United Kingdom","landing_point_id":13370,"id":"port-grenaugh-united-kingdom"},{"name":"Winterton-on-Sea, United Kingdom","landing_point_id":3269,"id":"winterton-on-sea-united-kingdom"},{"name":"Dartmouth, United Kingdom","landing_point_id":10381,"id":"dartmouth-united-kingdom"},{"name":"Saints Bay, United Kingdom","landing_point_id":10374,"id":"saints-bay-united-kingdom"},{"name":"Pembroke, United Kingdom","landing_point_id":10373,"id":"pembroke-united-kingdom"},{"name":"Whitesands Bay, United Kingdom","landing_point_id":3081,"id":"whitesands-bay-united-kingdom"},{"name":"Porthcurno, United Kingdom","landing_point_id":3082,"id":"porthcurno-united-kingdom"},{"name":"Goonhilly Downs, United Kingdom","landing_point_id":3292,"id":"goonhilly-downs-united-kingdom"},{"name":"Bude, United Kingdom","landing_point_id":4554,"id":"bude-united-kingdom"},{"name":"Southport, United Kingdom","landing_point_id":3324,"id":"southport-united-kingdom"},{"name":"Skewjack, United Kingdom","landing_point_id":5741,"id":"skewjack-united-kingdom"},{"name":"Lowestoft, United Kingdom","landing_point_id":3084,"id":"lowestoft-united-kingdom"},{"name":"Sennen Cove, United Kingdom","landing_point_id":5742,"id":"sennen-cove-united-kingdom"},{"name":"Oxwich Bay, United Kingdom","landing_point_id":3145,"id":"oxwich-bay-united-kingdom"},{"name":"Highbridge, United Kingdom","landing_point_id":5745,"id":"highbridge-united-kingdom"},{"name":"Dunnet Bay, United Kingdom","landing_point_id":5746,"id":"dunnet-bay-united-kingdom"},{"name":"Pevensey Bay, United Kingdom","landing_point_id":6050,"id":"pevensey-bay-united-kingdom"},{"name":"Broadstairs, United Kingdom","landing_point_id":6033,"id":"broadstairs-united-kingdom"},{"name":"Dover, United Kingdom","landing_point_id":6086,"id":"dover-united-kingdom"},{"name":"Dumpton Gap, United Kingdom","landing_point_id":8397,"id":"dumpton-gap-united-kingdom"},{"name":"Sizewell, United Kingdom","landing_point_id":8398,"id":"sizewell-united-kingdom"},{"name":"Thorpeness, United Kingdom","landing_point_id":8399,"id":"thorpeness-united-kingdom"},{"name":"Blackpool, United Kingdom","landing_point_id":8408,"id":"blackpool-united-kingdom"},{"name":"Coleraine, United Kingdom","landing_point_id":9038,"id":"coleraine-united-kingdom"},{"name":"Deeside Clwyd, United Kingdom","landing_point_id":10338,"id":"deeside-clwyd-united-kingdom"},{"name":"Clair, United Kingdom","landing_point_id":10354,"id":"clair-united-kingdom"},{"name":"Schiehallion, United Kingdom","landing_point_id":10353,"id":"schiehallion-united-kingdom"},{"name":"Banff, United Kingdom","landing_point_id":8680,"id":"banff-united-kingdom"},{"name":"Ayre of Caira, United Kingdom","landing_point_id":8682,"id":"ayre-of-caira-united-kingdom"},{"name":"Sandwick, United Kingdom","landing_point_id":8683,"id":"sandwick-united-kingdom"},{"name":"Maywick, United Kingdom","landing_point_id":8684,"id":"maywick-united-kingdom"},{"name":"Holyhead, United Kingdom","landing_point_id":6035,"id":"holyhead-united-kingdom"},{"name":"Brean, United Kingdom","landing_point_id":5736,"id":"brean-united-kingdom"}],"name":"United Kingdom"}
