{"landing_points":[{"latlon":"31.619916,121.395237","url":"#/landing-point/chongming-china","name":"Chongming, China","id":"chongming-china","landing_point_id":5802},{"latlon":"16.051564,108.214774","url":"#/landing-point/danang-vietnam","name":"Danang, Vietnam","id":"danang-vietnam","landing_point_id":5986},{"latlon":"3.815145,103.322589","url":"#/landing-point/kuantan-malaysia","name":"Kuantan, Malaysia","id":"kuantan-malaysia","landing_point_id":5903},{"latlon":"35.037493,139.816908","url":"#/landing-point/maruyama-japan","name":"Maruyama, Japan","id":"maruyama-japan","landing_point_id":5887},{"latlon":"30.306343,121.191428","url":"#/landing-point/nanhui-china","name":"Nanhui, China","id":"nanhui-china","landing_point_id":5804},{"latlon":"35.170110,128.999335","url":"#/landing-point/pusan-korea-rep-","name":"Pusan, Korea, Rep.","id":"pusan-korea-rep-","landing_point_id":4183},{"latlon":"34.336810,136.874331","url":"#/landing-point/shima-japan","name":"Shima, Japan","id":"shima-japan","landing_point_id":5883},{"latlon":"7.078424,100.597004","url":"#/landing-point/songkhla-thailand","name":"Songkhla, Thailand","id":"songkhla-thailand","landing_point_id":4265},{"latlon":"1.327255,103.946612","url":"#/landing-point/tanah-merah-singapore","name":"Tanah Merah, Singapore","id":"tanah-merah-singapore","landing_point_id":9135},{"latlon":"24.863572,121.801486","url":"#/landing-point/toucheng-taiwan","name":"Toucheng, Taiwan","id":"toucheng-taiwan","landing_point_id":5981},{"latlon":"22.318261,114.258717","url":"#/landing-point/tseung-kwan-o-hong-kong","name":"Tseung Kwan O, Hong Kong","id":"tseung-kwan-o-hong-kong","landing_point_id":5857}],"length":"10,400 km","rfs":"Q2 2016","cable_id":1617,"owners":"NTT,  China Telecom,  China Unicom,  Chunghwa Telecom,  KT,  Starhub,  LG Uplus,  China Mobile,  Viettel Corporation,  Vietnam Telecom International,  Global Transit,  Facebook,  TIME dotCom","notes":null,"url":null,"name":"Asia Pacific Gateway (APG)","id":"asia-pacific-gateway-apg"}
