{"landing_points":[{"latlon":"38.658487,-27.215825","url":"#/landing-point/angra-do-heroismo-portugal","name":"Angra do Heroismo, Portugal","id":"angra-do-heroismo-portugal","landing_point_id":14836},{"latlon":"38.525089,-28.647563","url":"#/landing-point/faial-portugal","name":"Faial, Portugal","id":"faial-portugal","landing_point_id":14659},{"latlon":"39.011026,-27.963481","url":"#/landing-point/graciosa-portugal","name":"Graciosa, Portugal","id":"graciosa-portugal","landing_point_id":14658},{"latlon":"37.739249,-25.668756","url":"#/landing-point/ponta-delgada-portugal","name":"Ponta Delgada, Portugal","id":"ponta-delgada-portugal","landing_point_id":5945},{"latlon":"38.432316,-28.461235","url":"#/landing-point/sao-mateus-portugal","name":"Sao Mateus, Portugal","id":"sao-mateus-portugal","landing_point_id":14834},{"latlon":"38.683878,-28.213188","url":"#/landing-point/velas-portugal","name":"Velas, Portugal","id":"velas-portugal","landing_point_id":14833},{"latlon":"36.956730,-25.141266","url":"#/landing-point/vila-do-porto-portugal","name":"Vila do Porto, Portugal","id":"vila-do-porto-portugal","landing_point_id":14835}],"length":"1,100 km","rfs":"July 1998","cable_id":1801,"owners":"Portugal Telecom","notes":null,"url":null,"name":"Azores Fiber Optic System (AFOS)","id":"azores-fiber-optic-system-afos"}
