{"landing_points":[{"latlon":"26.350290,-80.088945","url":"#/landing-point/boca-raton-florida-united-states","name":"Boca Raton, Florida, United States","id":"boca-raton-florida-united-states","landing_point_id":3563},{"latlon":"25.068455,-77.453008","url":"#/landing-point/caves-point-bahamas","name":"Caves Point, Bahamas","id":"caves-point-bahamas","landing_point_id":5786},{"latlon":"26.912497,-77.821954","url":"#/landing-point/crown-haven-bahamas","name":"Crown Haven, Bahamas","id":"crown-haven-bahamas","landing_point_id":8355},{"latlon":"25.407810,-76.787677","url":"#/landing-point/current-bahamas","name":"Current, Bahamas","id":"current-bahamas","landing_point_id":5787},{"latlon":"26.516892,-78.736846","url":"#/landing-point/hawksbill-bahamas","name":"Hawksbill, Bahamas","id":"hawksbill-bahamas","landing_point_id":5785},{"latlon":"26.616696,-78.245879","url":"#/landing-point/riding-point-bahamas","name":"Riding Point, Bahamas","id":"riding-point-bahamas","landing_point_id":8354},{"latlon":"26.025193,-77.399542","url":"#/landing-point/sandy-point-bahamas","name":"Sandy Point, Bahamas","id":"sandy-point-bahamas","landing_point_id":5788},{"latlon":"26.378024,-80.067704","url":"#/landing-point/spanish-river-park-florida-united-states","name":"Spanish River Park, Florida, United States","id":"spanish-river-park-florida-united-states","landing_point_id":8357}],"length":"1,100 km","rfs":"July 2001","cable_id":1232,"owners":"Caribbean Crossings","notes":null,"url":"http://www.caribbeancrossings.com","name":"Bahamas Internet Cable System (BICS)","id":"bahamas-internet-cable-system-bics"}
