{"landing_points":[{"latlon":"-10.909653,-37.074805","url":"#/landing-point/aracaj-brazil","name":"Aracajú, Brazil","id":"aracaj-brazil","landing_point_id":3356},{"latlon":"-21.631132,-41.027245","url":"#/landing-point/atafona-brazil","name":"Atafona, Brazil","id":"atafona-brazil","landing_point_id":16690},{"latlon":"-14.787972,-39.047704","url":"#/landing-point/ilhus-brazil","name":"Ilhéus, Brazil","id":"ilhus-brazil","landing_point_id":4590},{"latlon":"-7.115319,-34.861037","url":"#/landing-point/joo-pessoa-brazil","name":"João Pessoa, Brazil","id":"joo-pessoa-brazil","landing_point_id":3351},{"latlon":"-22.371757,-41.785643","url":"#/landing-point/maca-brazil","name":"Macaé, Brazil","id":"maca-brazil","landing_point_id":3387},{"latlon":"-9.666490,-35.734962","url":"#/landing-point/macei-brazil","name":"Maceió, Brazil","id":"macei-brazil","landing_point_id":3344},{"latlon":"-5.794812,-35.211183","url":"#/landing-point/natal-brazil","name":"Natal, Brazil","id":"natal-brazil","landing_point_id":3354},{"latlon":"-16.451057,-39.064697","url":"#/landing-point/porto-seguro-brazil","name":"Porto Seguro, Brazil","id":"porto-seguro-brazil","landing_point_id":5493},{"latlon":"-8.055358,-34.871974","url":"#/landing-point/recife-brazil","name":"Recife, Brazil","id":"recife-brazil","landing_point_id":3352},{"latlon":"-22.903397,-43.209568","url":"#/landing-point/rio-de-janeiro-brazil","name":"Rio de Janeiro, Brazil","id":"rio-de-janeiro-brazil","landing_point_id":3242},{"latlon":"-12.970004,-38.504541","url":"#/landing-point/salvador-brazil","name":"Salvador, Brazil","id":"salvador-brazil","landing_point_id":3342},{"latlon":"-11.846664,-37.570508","url":"#/landing-point/sitio-brazil","name":"Sitio, Brazil","id":"sitio-brazil","landing_point_id":16689},{"latlon":"-18.716681,-39.859130","url":"#/landing-point/so-mateus-brazil","name":"São Mateus, Brazil","id":"so-mateus-brazil","landing_point_id":5506},{"latlon":"-20.294024,-40.301659","url":"#/landing-point/vitria-brazil","name":"Vitória, Brazil","id":"vitria-brazil","landing_point_id":3343}],"length":"2,543 km","rfs":"1996","cable_id":1888,"owners":"Embratel","notes":null,"url":null,"name":"Brazilian Festoon","id":"brazilian-festoon"}
