{"landing_points":[{"latlon":"38.690128,-9.331557","url":"#/landing-point/carcavelos-portugal","name":"Carcavelos, Portugal","id":"carcavelos-portugal","landing_point_id":5936},{"latlon":"36.276555,-6.087222","url":"#/landing-point/conil-spain","name":"Conil, Spain","id":"conil-spain","landing_point_id":5944},{"latlon":"26.010251,-80.160234","url":"#/landing-point/hollywood-florida-united-states","name":"Hollywood, Florida, United States","id":"hollywood-florida-united-states","landing_point_id":3650},{"latlon":"37.650089,12.591285","url":"#/landing-point/mazara-del-vallo-italy","name":"Mazara del Vallo, Italy","id":"mazara-del-vallo-italy","landing_point_id":3215},{"latlon":"37.739249,-25.668756","url":"#/landing-point/ponta-delgada-portugal","name":"Ponta Delgada, Portugal","id":"ponta-delgada-portugal","landing_point_id":5945}],"length":"9,833 km","rfs":"December 1999","cable_id":1046,"owners":"Telecom Italia Sparkle,  AT&T,  Verizon,  Telefonica,  Portugal Telecom,  Tata Communications,  Ukrtelecom,  Telkom South Africa,  Telecom Argentina,  Instituto Costarricense de Electricidad,  Embratel,  Cyta","notes":null,"url":null,"name":"Columbus-III","id":"columbus-iii"}
