{"landing_points":[{"latlon":"10.435063,45.010898","url":"#/landing-point/berbera-somalia","name":"Berbera, Somalia","id":"berbera-somalia","landing_point_id":10093},{"latlon":"11.275590,49.187947","url":"#/landing-point/bosaso-somalia","name":"Bosaso, Somalia","id":"bosaso-somalia","landing_point_id":16373},{"latlon":"-6.823229,39.269690","url":"#/landing-point/dar-es-salaam-tanzania","name":"Dar Es Salaam, Tanzania","id":"dar-es-salaam-tanzania","landing_point_id":4182},{"latlon":"11.594633,43.148008","url":"#/landing-point/djibouti-city-djibouti","name":"Djibouti City, Djibouti","id":"djibouti-city-djibouti","landing_point_id":4177},{"latlon":"13.320316,43.247325","url":"#/landing-point/mocha-yemen","name":"Mocha, Yemen","id":"mocha-yemen","landing_point_id":16693},{"latlon":"2.041220,45.344199","url":"#/landing-point/mogadishu-somalia","name":"Mogadishu, Somalia","id":"mogadishu-somalia","landing_point_id":4255},{"latlon":"-4.053211,39.672815","url":"#/landing-point/mombasa-kenya","name":"Mombasa, Kenya","id":"mombasa-kenya","landing_point_id":5896},{"latlon":"12.696390,53.486578","url":"#/landing-point/socotra-yemen","name":"Socotra, Yemen","id":"socotra-yemen","landing_point_id":16694}],"length":"5,500 km","rfs":"May 2018","cable_id":1863,"owners":"Djibouti Telecom,  Africa Marine Express,  TeleYemen,  Telesom,  Hormuud Telecom Somalia,  Golis Telecommunications,  Somtel International","notes":null,"url":null,"name":"Djibouti Africa Regional Express (DARE)","id":"djibouti-africa-regional-express-dare"}
