{"landing_points":[{"latlon":"36.383586,140.612220","url":"#/landing-point/ajigaura-japan","name":"Ajigaura, Japan","id":"ajigaura-japan","landing_point_id":5884},{"latlon":"13.765530,121.064963","url":"#/landing-point/batangas-philippines","name":"Batangas, Philippines","id":"batangas-philippines","landing_point_id":3218},{"latlon":"14.286233,120.820139","url":"#/landing-point/cavite-philippines","name":"Cavite, Philippines","id":"cavite-philippines","landing_point_id":5931},{"latlon":"1.389071,103.987042","url":"#/landing-point/changi-north-singapore","name":"Changi North, Singapore","id":"changi-north-singapore","landing_point_id":5940},{"latlon":"1.389071,103.987042","url":"#/landing-point/changi-south-singapore","name":"Changi South, Singapore","id":"changi-south-singapore","landing_point_id":5937},{"latlon":"34.976653,139.954603","url":"#/landing-point/chikura-japan","name":"Chikura, Japan","id":"chikura-japan","landing_point_id":5885},{"latlon":"22.222069,114.203053","url":"#/landing-point/chung-hom-kok-hong-kong","name":"Chung Hom Kok, Hong Kong","id":"chung-hom-kok-hong-kong","landing_point_id":5856},{"latlon":"22.249218,120.662132","url":"#/landing-point/fangshan-taiwan","name":"Fangshan, Taiwan","id":"fangshan-taiwan","landing_point_id":5980},{"latlon":"25.149998,121.383225","url":"#/landing-point/pa-li-taiwan","name":"Pa Li, Taiwan","id":"pa-li-taiwan","landing_point_id":5983},{"latlon":"35.170110,128.999335","url":"#/landing-point/pusan-korea-rep-","name":"Pusan, Korea, Rep.","id":"pusan-korea-rep-","landing_point_id":4183},{"latlon":"36.087102,120.342600","url":"#/landing-point/qingdao-china","name":"Qingdao, China","id":"qingdao-china","landing_point_id":6012},{"latlon":"31.247553,121.472483","url":"#/landing-point/shanghai-china","name":"Shanghai, China","id":"shanghai-china","landing_point_id":3246},{"latlon":"34.336810,136.874331","url":"#/landing-point/shima-japan","name":"Shima, Japan","id":"shima-japan","landing_point_id":5883},{"latlon":"36.576262,126.391621","url":"#/landing-point/shindu-ri-korea-rep-","name":"Shindu-Ri, Korea, Rep.","id":"shindu-ri-korea-rep-","landing_point_id":5977},{"latlon":"25.181345,121.462619","url":"#/landing-point/tanshui-taiwan","name":"Tanshui, Taiwan","id":"tanshui-taiwan","landing_point_id":5982},{"latlon":"22.318261,114.258717","url":"#/landing-point/tseung-kwan-o-hong-kong","name":"Tseung Kwan O, Hong Kong","id":"tseung-kwan-o-hong-kong","landing_point_id":5857}],"length":"36,500 km","rfs":"November 2002","cable_id":1592,"owners":"Telstra","notes":null,"url":"http://www.telstraglobal.com/","name":"EAC-C2C","id":"eac-c2c"}
