{"landing_points":[{"latlon":"-16.730061,-151.000044","url":"#/landing-point/huahine-french-polynesia","name":"Huahine, French Polynesia","id":"huahine-french-polynesia","landing_point_id":14804},{"latlon":"20.039941,-155.831389","url":"#/landing-point/kawaihae-hawaii-united-states","name":"Kawaihae, Hawaii, United States","id":"kawaihae-hawaii-united-states","landing_point_id":8973},{"latlon":"-17.538752,-149.829536","url":"#/landing-point/moorea-french-polynesia","name":"Moorea, French Polynesia","id":"moorea-french-polynesia","landing_point_id":14798},{"latlon":"-17.512384,-149.441060","url":"#/landing-point/papenoo-french-polynesia","name":"Papenoo, French Polynesia","id":"papenoo-french-polynesia","landing_point_id":8974},{"latlon":"-16.730939,-151.443012","url":"#/landing-point/uturoa-french-polynesia","name":"Uturoa, French Polynesia","id":"uturoa-french-polynesia","landing_point_id":14799},{"latlon":"-16.506330,-151.749506","url":"#/landing-point/vaitape-french-polynesia","name":"Vaitape, French Polynesia","id":"vaitape-french-polynesia","landing_point_id":14800}],"length":"4,805 km","rfs":"September 2010","cable_id":1556,"owners":"OPT French Polynesia","notes":null,"url":"http://www.opt.pf","name":"Honotua","id":"honotua"}
