{"landing_points":[{"latlon":"31.619916,121.395237","url":"#/landing-point/chongming-china","name":"Chongming, China","id":"chongming-china","landing_point_id":5802},{"latlon":"30.935639,121.896115","url":"#/landing-point/lingang-china","name":"Lingang, China","id":"lingang-china","landing_point_id":16316},{"latlon":"35.037493,139.816908","url":"#/landing-point/maruyama-japan","name":"Maruyama, Japan","id":"maruyama-japan","landing_point_id":5887},{"latlon":"30.306343,121.191428","url":"#/landing-point/nanhui-china","name":"Nanhui, China","id":"nanhui-china","landing_point_id":5804},{"latlon":"45.201941,-123.962654","url":"#/landing-point/pacific-city-or-united-states","name":"Pacific City, OR, United States","id":"pacific-city-or-united-states","landing_point_id":3730},{"latlon":"35.170110,128.999335","url":"#/landing-point/pusan-korea-rep-","name":"Pusan, Korea, Rep.","id":"pusan-korea-rep-","landing_point_id":4183},{"latlon":"24.863572,121.801486","url":"#/landing-point/toucheng-taiwan","name":"Toucheng, Taiwan","id":"toucheng-taiwan","landing_point_id":5981}],"length":"13,618 km","rfs":"Q4 2017","cable_id":1786,"owners":"China Telecom,  China Unicom,  Chunghwa Telecom,  KT,  China Mobile,  Microsoft,  Softbank Telecom","notes":null,"url":null,"name":"New Cross Pacific (NCP) Cable System","id":"new-cross-pacific-ncp-cable-system"}
