{"landing_points":[{"latlon":"7.079987,125.612813","url":"#/landing-point/davao-philippines","name":"Davao, Philippines","id":"davao-philippines","landing_point_id":3902},{"latlon":"33.862201,-118.399571","url":"#/landing-point/hermosa-beach-california-united-states","name":"Hermosa Beach, California, United States","id":"hermosa-beach-california-united-states","landing_point_id":4966},{"latlon":"1.378622,125.065645","url":"#/landing-point/kauditan-indonesia","name":"Kauditan, Indonesia","id":"kauditan-indonesia","landing_point_id":16518},{"latlon":"21.460253,-158.206046","url":"#/landing-point/makaha-hawaii-united-states","name":"Makaha, Hawaii, United States","id":"makaha-hawaii-united-states","landing_point_id":5760},{"latlon":"13.464652,144.694640","url":"#/landing-point/piti-guam","name":"Piti, Guam","id":"piti-guam","landing_point_id":5973}],"length":"15,000 km","rfs":"Q4 2016","cable_id":1823,"owners":"RAM Telecom International,  Globe Telecom,  Hawaiian Telcom,  Telkom Indonesia,  GTA TeleGuam","notes":null,"url":null,"name":"SEA-US","id":"sea-us"}
