{"landing_points":[{"latlon":"58.833282,-2.900114","url":"#/landing-point/ayre-of-caira-united-kingdom","name":"Ayre of Caira, United Kingdom","id":"ayre-of-caira-united-kingdom","landing_point_id":8682},{"latlon":"57.666877,-2.523650","url":"#/landing-point/banff-united-kingdom","name":"Banff, United Kingdom","id":"banff-united-kingdom","landing_point_id":8680},{"latlon":"60.749883,-2.399919","url":"#/landing-point/clair-united-kingdom","name":"Clair, United Kingdom","id":"clair-united-kingdom","landing_point_id":10354},{"latlon":"60.003985,-1.323797","url":"#/landing-point/maywick-united-kingdom","name":"Maywick, United Kingdom","id":"maywick-united-kingdom","landing_point_id":8684},{"latlon":"59.995977,-1.238689","url":"#/landing-point/sandwick-united-kingdom","name":"Sandwick, United Kingdom","id":"sandwick-united-kingdom","landing_point_id":8683},{"latlon":"60.333086,-4.333414","url":"#/landing-point/schiehallion-united-kingdom","name":"Schiehallion, United Kingdom","id":"schiehallion-united-kingdom","landing_point_id":10353},{"latlon":"62.017461,-6.771841","url":"#/landing-point/torshavn-faeroe-islands","name":"Torshavn, Faeroe Islands","id":"torshavn-faeroe-islands","landing_point_id":8681}],"length":"1,000 km","rfs":"March 2008","cable_id":1576,"owners":"Faroese Telecom","notes":null,"url":"http://www.shefa.fo","name":"SHEFA-2","id":"shefa-2"}
