{"landing_points":[{"latlon":"8.950005,-79.566679","url":"#/landing-point/balboa-panama","name":"Balboa, Panama","id":"balboa-panama","landing_point_id":8722},{"latlon":"9.353716,-79.900029","url":"#/landing-point/coln-panama","name":"Colón, Panama","id":"coln-panama","landing_point_id":6093},{"latlon":"30.331733,-81.655741","url":"#/landing-point/jacksonville-florida-united-states","name":"Jacksonville, Florida, United States","id":"jacksonville-florida-united-states","landing_point_id":3655},{"latlon":"21.460253,-158.206046","url":"#/landing-point/makaha-hawaii-united-states","name":"Makaha, Hawaii, United States","id":"makaha-hawaii-united-states","landing_point_id":5760},{"latlon":"-33.045775,-71.620492","url":"#/landing-point/valparaso-chile","name":"Valparaíso, Chile","id":"valparaso-chile","landing_point_id":3331}],"length":"17,600 km","rfs":"Q1 2018","cable_id":1791,"owners":"Ocean Networks","notes":null,"url":"http://www.oceannetworks.com","name":"South America Pacific Link (SAPL)","id":"south-america-pacific-link-sapl"}
