{"landing_points":[{"latlon":"34.976653,139.954603","url":"#/landing-point/chikura-japan","name":"Chikura, Japan","id":"chikura-japan","landing_point_id":5885},{"latlon":"22.224999,114.205689","url":"#/landing-point/chung-hom-kok-hong-kong","name":"Chung Hom Kok, Hong Kong","id":"chung-hom-kok-hong-kong","landing_point_id":5856},{"latlon":"14.317386,120.695823","url":"#/landing-point/nasugbu-philippines","name":"Nasugbu, Philippines","id":"nasugbu-philippines","landing_point_id":9603},{"latlon":"23.354588,116.675512","url":"#/landing-point/shantou-china","name":"Shantou, China","id":"shantou-china","landing_point_id":5803},{"latlon":"7.078424,100.597004","url":"#/landing-point/songkhla-thailand","name":"Songkhla, Thailand","id":"songkhla-thailand","landing_point_id":4265},{"latlon":"4.703718,114.570631","url":"#/landing-point/telisai-brunei","name":"Telisai, Brunei","id":"telisai-brunei","landing_point_id":10309},{"latlon":"1.338193,103.647101","url":"#/landing-point/tuas-singapore","name":"Tuas, Singapore","id":"tuas-singapore","landing_point_id":5938}],"length":"8,900 km","rfs":"June 2013","cable_id":1604,"owners":"Globe Telecom,  Google,  KDDI,  Telkom Indonesia,  SingTel,  China Telecom,  TOT,  China Mobile,  Chunghwa Telecom,  Brunei International Gateway,  SingTel Optus,  Airtel (Bharti)","notes":null,"url":null,"name":"Southeast Asia Japan Cable (SJC)","id":"southeast-asia-japan-cable-sjc"}
