{"landing_points":[{"latlon":"-33.913939,151.196199","url":"#/landing-point/alexandria-australia","name":"Alexandria, Australia","id":"alexandria-australia","landing_point_id":6097},{"latlon":"-33.761205,151.273933","url":"#/landing-point/brookvale-australia","name":"Brookvale, Australia","id":"brookvale-australia","landing_point_id":5781},{"latlon":"45.824792,-123.811189","url":"#/landing-point/hillsboro-oregon-united-states","name":"Hillsboro, Oregon, United States","id":"hillsboro-oregon-united-states","landing_point_id":3649},{"latlon":"21.354003,-158.130558","url":"#/landing-point/kahe-point-hawaii-united-states","name":"Kahe Point, Hawaii, United States","id":"kahe-point-hawaii-united-states","landing_point_id":5753},{"latlon":"35.366692,-120.847226","url":"#/landing-point/morro-bay-california-united-states","name":"Morro Bay, California, United States","id":"morro-bay-california-united-states","landing_point_id":5751},{"latlon":"20.023145,-155.822063","url":"#/landing-point/spencer-beach-hawaii-united-states","name":"Spencer Beach, Hawaii, United States","id":"spencer-beach-hawaii-united-states","landing_point_id":5752},{"latlon":"-18.123810,178.437397","url":"#/landing-point/suva-fiji","name":"Suva, Fiji","id":"suva-fiji","landing_point_id":4268},{"latlon":"-36.787961,174.767867","url":"#/landing-point/takapuna-new-zealand","name":"Takapuna, New Zealand","id":"takapuna-new-zealand","landing_point_id":5918},{"latlon":"-36.788840,174.623336","url":"#/landing-point/whenuapai-new-zealand","name":"Whenuapai, New Zealand","id":"whenuapai-new-zealand","landing_point_id":5919}],"length":"30,500 km","rfs":"November 2000","cable_id":1009,"owners":"Spark New Zealand,  SingTel Optus,  Verizon","notes":null,"url":"http://www.southerncrosscables.com","name":"Southern Cross Cable Network (SCCN)","id":"southern-cross-cable-network-sccn"}
