{"landing_points":[{"latlon":"18.328224,-64.943786","url":"#/landing-point/banana-bay-vi-united-states","name":"Banana Bay, VI, United States","id":"banana-bay-vi-united-states","landing_point_id":13401},{"latlon":"18.342384,-64.975329","url":"#/landing-point/brewers-bay-vi-united-states","name":"Brewer's Bay, VI, United States","id":"brewers-bay-vi-united-states","landing_point_id":13398},{"latlon":"17.746681,-64.703161","url":"#/landing-point/christiansted-vi-united-states","name":"Christiansted, VI, United States","id":"christiansted-vi-united-states","landing_point_id":13396},{"latlon":"18.312794,-64.957800","url":"#/landing-point/flamingo-bay-vi-united-states","name":"Flamingo Bay, VI, United States","id":"flamingo-bay-vi-united-states","landing_point_id":13400},{"latlon":"17.712404,-64.881530","url":"#/landing-point/frederiksted-vi-united-states","name":"Frederiksted, VI, United States","id":"frederiksted-vi-united-states","landing_point_id":13397},{"latlon":"18.322462,-64.843200","url":"#/landing-point/great-bay-vi-united-states","name":"Great Bay, VI, United States","id":"great-bay-vi-united-states","landing_point_id":13399},{"latlon":"18.335743,-64.948034","url":"#/landing-point/vila-olga-vi-united-states","name":"Vila Olga, VI, United States","id":"vila-olga-vi-united-states","landing_point_id":13402}],"length":"183 km","rfs":"July 2013","cable_id":1756,"owners":"Virgin Islands Next Generation Networks,  Inc.","notes":null,"url":"http://www.vingn.com","name":"St. Thomas-St. Croix System","id":"st-thomas-st-croix-system"}
