{"landing_points":[{"latlon":"35.062395,140.061048","url":"#/landing-point/emi-japan","name":"Emi, Japan","id":"emi-japan","landing_point_id":5894},{"latlon":"45.824792,-123.811189","url":"#/landing-point/hillsboro-oregon-united-states","name":"Hillsboro, Oregon, United States","id":"hillsboro-oregon-united-states","landing_point_id":3649},{"latlon":"34.053411,-118.245372","url":"#/landing-point/los-angeles-california-united-states","name":"Los Angeles, California, United States","id":"los-angeles-california-united-states","landing_point_id":3678},{"latlon":"13.464652,144.694640","url":"#/landing-point/piti-guam","name":"Piti, Guam","id":"piti-guam","landing_point_id":5973},{"latlon":"34.769036,137.391518","url":"#/landing-point/toyohashi-japan","name":"Toyohashi, Japan","id":"toyohashi-japan","landing_point_id":5893}],"length":"22,300 km","rfs":"December 2002","cable_id":1155,"owners":"Tata Communications","notes":null,"url":"http://www.tatacommunications.com","name":"Tata TGN-Pacific","id":"tata-tgn-pacific"}
