{"landing_points":[{"latlon":"26.286130,50.214216","url":"#/landing-point/al-khobar-saudi-arabia","name":"Al Khobar, Saudi Arabia","id":"al-khobar-saudi-arabia","landing_point_id":7729},{"latlon":"25.294333,51.519391","url":"#/landing-point/al-kheesa-qatar","name":"Al-Kheesa, Qatar","id":"al-kheesa-qatar","landing_point_id":10682},{"latlon":"26.229001,50.575837","url":"#/landing-point/amwaj-island-bahrain","name":"Amwaj Island, Bahrain","id":"amwaj-island-bahrain","landing_point_id":10683},{"latlon":"25.269334,55.308452","url":"#/landing-point/dubai-united-arab-emirates","name":"Dubai, United Arab Emirates","id":"dubai-united-arab-emirates","landing_point_id":3270},{"latlon":"25.121677,56.333744","url":"#/landing-point/fujairah-united-arab-emirates","name":"Fujairah, United Arab Emirates","id":"fujairah-united-arab-emirates","landing_point_id":5962},{"latlon":"23.615135,58.591067","url":"#/landing-point/qalhat-oman","name":"Qalhat, Oman","id":"qalhat-oman","landing_point_id":10684}],"length":"4,031 km","rfs":"February 2012","cable_id":1631,"owners":"Tata Communications","notes":null,"url":"http://www.tatacommunications.com","name":"Tata TGN-Gulf","id":"tata-tgn-gulf"}
