{"landing_points":[{"latlon":"31.619916,121.395237","url":"#/landing-point/chongming-china","name":"Chongming, China","id":"chongming-china","landing_point_id":5802},{"latlon":"34.880657,128.620819","url":"#/landing-point/keoje-korea-rep-","name":"Keoje, Korea, Rep.","id":"keoje-korea-rep-","landing_point_id":5975},{"latlon":"35.037493,139.816908","url":"#/landing-point/maruyama-japan","name":"Maruyama, Japan","id":"maruyama-japan","landing_point_id":5887},{"latlon":"45.643738,-123.940096","url":"#/landing-point/nedonna-beach-oregon-united-states","name":"Nedonna Beach, Oregon, United States","id":"nedonna-beach-oregon-united-states","landing_point_id":3711},{"latlon":"36.087102,120.342600","url":"#/landing-point/qingdao-china","name":"Qingdao, China","id":"qingdao-china","landing_point_id":6012},{"latlon":"25.181345,121.462619","url":"#/landing-point/tanshui-taiwan","name":"Tanshui, Taiwan","id":"tanshui-taiwan","landing_point_id":5982}],"length":"17,000 km","rfs":"August 2008","cable_id":1513,"owners":"China Telecom,  China Unicom,  Chunghwa Telecom,  KT,  Verizon,  NTT,  AT&T","notes":null,"url":"http://tpecable.org","name":"Trans-Pacific Express (TPE) Cable System","id":"trans-pacific-express-tpe-cable-system"}
